[
	{
		"column_1": "YCB",
		"airport_name": "Cambridge Bay",
		"city_name": "Cambridge Bay",
		"country_name": "Canada",
		"country_code": "CA",
		"latitude": 69.116667,
		"longitude": -105.133333,
		"world_area_code": 906,
		"city_name_geo_name_id": "\\N",
		"country_name_geo_name_id": 6251999,
		"coordinates": { "lon": -105.133333, "lat": 69.116667 }
	},
	{
		"column_1": "YKD",
		"airport_name": "Township Airport",
		"city_name": "Kincardine",
		"country_name": "Canada",
		"country_code": "CA",
		"latitude": 44.201389,
		"longitude": -81.606667,
		"world_area_code": 906,
		"city_name_geo_name_id": "\\N",
		"country_name_geo_name_id": 6251999,
		"coordinates": { "lon": -81.606667, "lat": 44.201389 }
	},
	{
		"column_1": "UPF",
		"airport_name": "Pforheim",
		"city_name": "Pforheim",
		"country_name": "Germany",
		"country_code": "DE",
		"latitude": 48.9,
		"longitude": 8.7,
		"world_area_code": 429,
		"city_name_geo_name_id": "\\N",
		"country_name_geo_name_id": 2921044,
		"coordinates": { "lon": 8.7, "lat": 48.9 }
	},
	{
		"column_1": "IXB",
		"airport_name": "Bagdogra",
		"city_name": "Bagdogra",
		"country_name": "India",
		"country_code": "IN",
		"latitude": 26.733333000000002,
		"longitude": 88.333333,
		"world_area_code": 733,
		"city_name_geo_name_id": "1277897",
		"country_name_geo_name_id": 1269750,
		"coordinates": { "lon": 88.333333, "lat": 26.733333000000002 }
	},
	{
		"column_1": "IMK",
		"airport_name": "Simikot",
		"city_name": "Simikot",
		"country_name": "Nepal",
		"country_code": "NP",
		"latitude": 29.966667,
		"longitude": 81.833333,
		"world_area_code": 755,
		"city_name_geo_name_id": "\\N",
		"country_name_geo_name_id": 1282988,
		"coordinates": { "lon": 81.833333, "lat": 29.966667 }
	},
	{
		"column_1": "KCJ",
		"airport_name": "Komaio",
		"city_name": "Komaio",
		"country_name": "Papua New Guinea",
		"country_code": "PG",
		"latitude": -7.216667,
		"longitude": 143.6,
		"world_area_code": 804,
		"city_name_geo_name_id": "\\N",
		"country_name_geo_name_id": 2088628,
		"coordinates": { "lon": 143.6, "lat": -7.216667 }
	},
	{
		"column_1": "KUX",
		"airport_name": "Kuyol",
		"city_name": "Kuyol",
		"country_name": "Papua New Guinea",
		"country_code": "PG",
		"latitude": 38.471667,
		"longitude": 126.0375,
		"world_area_code": 804,
		"city_name_geo_name_id": "\\N",
		"country_name_geo_name_id": 2088628,
		"coordinates": { "lon": 126.0375, "lat": 38.471667 }
	},
	{
		"column_1": "UIK",
		"airport_name": "Ust-Ilimsk",
		"city_name": "Ust-Ilimsk",
		"country_name": "Russian Federation",
		"country_code": "RU",
		"latitude": 58.133333,
		"longitude": 102.55,
		"world_area_code": 770,
		"city_name_geo_name_id": "\\N",
		"country_name_geo_name_id": 2017370,
		"coordinates": { "lon": 102.55, "lat": 58.133333 }
	},
	{
		"column_1": "HNL",
		"airport_name": "Honolulu International",
		"city_name": "Honolulu",
		"country_name": "United States",
		"country_code": "US",
		"latitude": 21.333333,
		"longitude": -157.933333,
		"world_area_code": 67,
		"city_name_geo_name_id": "5856195",
		"country_name_geo_name_id": 6252001,
		"coordinates": { "lon": -157.933333, "lat": 21.333333 }
	},
	{
		"column_1": "LBL",
		"airport_name": "Municipal",
		"city_name": "Liberal",
		"country_name": "United States",
		"country_code": "US",
		"latitude": 37.05,
		"longitude": -100.966667,
		"world_area_code": 67,
		"city_name_geo_name_id": "5445820",
		"country_name_geo_name_id": 6252001,
		"coordinates": { "lon": -100.966667, "lat": 37.05 }
	},
	{
		"column_1": "BGR",
		"airport_name": "Bangor International Airport",
		"city_name": "Bangor",
		"country_name": "United States",
		"country_code": "US",
		"latitude": 44.8,
		"longitude": -68.816667,
		"world_area_code": 67,
		"city_name_geo_name_id": "5244626",
		"country_name_geo_name_id": 6252001,
		"coordinates": { "lon": -68.816667, "lat": 44.8 }
	},
	{
		"column_1": "BAZ",
		"airport_name": "Barbelos",
		"city_name": "Barbelos",
		"country_name": "Brazil",
		"country_code": "BR",
		"latitude": -0.966943999999999,
		"longitude": -62.933611,
		"world_area_code": 316,
		"city_name_geo_name_id": "\\N",
		"country_name_geo_name_id": 3469034,
		"coordinates": { "lon": -62.933611, "lat": -0.966943999999999 }
	},
	{
		"column_1": "CAW",
		"airport_name": "Bartolomeu Lisandro",
		"city_name": "Campos",
		"country_name": "Brazil",
		"country_code": "BR",
		"latitude": -21.75,
		"longitude": -41.3,
		"world_area_code": 316,
		"city_name_geo_name_id": "3467693",
		"country_name_geo_name_id": 3469034,
		"coordinates": { "lon": -41.3, "lat": -21.75 }
	},
	{
		"column_1": "ZTB",
		"airport_name": "Tete-a-La Baleine",
		"city_name": "Tete-a-La Baleine",
		"country_name": "Canada",
		"country_code": "CA",
		"latitude": 50.7,
		"longitude": -59.333333,
		"world_area_code": 906,
		"city_name_geo_name_id": "\\N",
		"country_name_geo_name_id": 6251999,
		"coordinates": { "lon": -59.333333, "lat": 50.7 }
	},
	{
		"column_1": "HCM",
		"airport_name": "Eil",
		"city_name": "Eil",
		"country_name": "Somalia",
		"country_code": "SO",
		"latitude": 8.0,
		"longitude": 49.925,
		"world_area_code": 573,
		"city_name_geo_name_id": "60019",
		"country_name_geo_name_id": 51537,
		"coordinates": { "lon": 49.925, "lat": 8.0 }
	},
	{
		"column_1": "LAK",
		"airport_name": "Aklavik",
		"city_name": "Aklavik",
		"country_name": "Canada",
		"country_code": "CA",
		"latitude": 68.216667,
		"longitude": -135.0,
		"world_area_code": 906,
		"city_name_geo_name_id": "\\N",
		"country_name_geo_name_id": 6251999,
		"coordinates": { "lon": -135.0, "lat": 68.216667 }
	},
	{
		"column_1": "ZLT",
		"airport_name": "La Tabatiere",
		"city_name": "La Tabatiere",
		"country_name": "Canada",
		"country_code": "CA",
		"latitude": 51.0,
		"longitude": -59.0,
		"world_area_code": 906,
		"city_name_geo_name_id": "\\N",
		"country_name_geo_name_id": 6251999,
		"coordinates": { "lon": -59.0, "lat": 51.0 }
	},
	{
		"column_1": "YOW",
		"airport_name": "Ottawa Macdonald-Cartier International",
		"city_name": "Ottawa",
		"country_name": "Canada",
		"country_code": "CA",
		"latitude": 45.3225,
		"longitude": -75.669167,
		"world_area_code": 906,
		"city_name_geo_name_id": "6094817",
		"country_name_geo_name_id": 6251999,
		"coordinates": { "lon": -75.669167, "lat": 45.3225 }
	},
	{
		"column_1": "PKU",
		"airport_name": "Sultan Syarif Kasim Ii",
		"city_name": "Pekanbaru",
		"country_name": "Indonesia",
		"country_code": "ID",
		"latitude": 0.460833,
		"longitude": 101.444444,
		"world_area_code": 832,
		"city_name_geo_name_id": "\\N",
		"country_name_geo_name_id": 1643084,
		"coordinates": { "lon": 101.444444, "lat": 0.460833 }
	},
	{
		"column_1": "LPQ",
		"airport_name": "Luang Prabang",
		"city_name": "Luang Prabang",
		"country_name": "Laos",
		"country_code": "LA",
		"latitude": 19.9,
		"longitude": 102.15,
		"world_area_code": 744,
		"city_name_geo_name_id": "1655559",
		"country_name_geo_name_id": 1655842,
		"coordinates": { "lon": 102.15, "lat": 19.9 }
	},
	{
		"column_1": "RUK",
		"airport_name": "Rukumkot",
		"city_name": "Rukumkot",
		"country_name": "Nepal",
		"country_code": "NP",
		"latitude": 28.95,
		"longitude": 82.266667,
		"world_area_code": 755,
		"city_name_geo_name_id": "\\N",
		"country_name_geo_name_id": 1282988,
		"coordinates": { "lon": 82.266667, "lat": 28.95 }
	},
	{
		"column_1": "CWI",
		"airport_name": "Clinton",
		"city_name": "Clinton",
		"country_name": "United States",
		"country_code": "US",
		"latitude": 41.833333,
		"longitude": -90.35,
		"world_area_code": 67,
		"city_name_geo_name_id": "5773001",
		"country_name_geo_name_id": 6252001,
		"coordinates": { "lon": -90.35, "lat": 41.833333 }
	},
	{
		"column_1": "NGN",
		"airport_name": "Nargana",
		"city_name": "Nargana",
		"country_name": "Panama",
		"country_code": "PA",
		"latitude": 9.066667,
		"longitude": -78.016667,
		"world_area_code": 162,
		"city_name_geo_name_id": "3703946",
		"country_name_geo_name_id": 3703433,
		"coordinates": { "lon": -78.016667, "lat": 9.066667 }
	},
	{
		"column_1": "VST",
		"airport_name": "Vasteras/Hasslo",
		"city_name": "Stockholm",
		"country_name": "Sweden",
		"country_code": "SE",
		"latitude": 59.589444,
		"longitude": 16.633611,
		"world_area_code": 484,
		"city_name_geo_name_id": "2673730",
		"country_name_geo_name_id": 2661886,
		"coordinates": { "lon": 16.633611, "lat": 59.589444 }
	},
	{
		"column_1": "EGP",
		"airport_name": "Maverick Co",
		"city_name": "Eagle Pass",
		"country_name": "United States",
		"country_code": "US",
		"latitude": 28.866667,
		"longitude": -100.533333,
		"world_area_code": 67,
		"city_name_geo_name_id": "5520677",
		"country_name_geo_name_id": 6252001,
		"coordinates": { "lon": -100.533333, "lat": 28.866667 }
	},
	{
		"column_1": "HID",
		"airport_name": "Horn Island",
		"city_name": "Horn Island",
		"country_name": "Australia",
		"country_code": "AU",
		"latitude": -10.536667,
		"longitude": 142.29,
		"world_area_code": 802,
		"city_name_geo_name_id": "\\N",
		"country_name_geo_name_id": 2077456,
		"coordinates": { "lon": 142.29, "lat": -10.536667 }
	},
	{
		"column_1": "LPB",
		"airport_name": "El Alto",
		"city_name": "La Paz",
		"country_name": "Bolivia",
		"country_code": "BO",
		"latitude": -16.513333,
		"longitude": -68.192222,
		"world_area_code": 312,
		"city_name_geo_name_id": "3911925",
		"country_name_geo_name_id": 3923057,
		"coordinates": { "lon": -68.192222, "lat": -16.513333 }
	},
	{
		"column_1": "SQL",
		"airport_name": "San Carlos",
		"city_name": "San Carlos",
		"country_name": "United States",
		"country_code": "US",
		"latitude": 37.483333,
		"longitude": -122.25,
		"world_area_code": 67,
		"city_name_geo_name_id": "5391760",
		"country_name_geo_name_id": 6252001,
		"coordinates": { "lon": -122.25, "lat": 37.483333 }
	},
	{
		"column_1": "SXY",
		"airport_name": "Sidney",
		"city_name": "Sidney",
		"country_name": "United States",
		"country_code": "US",
		"latitude": 42.316667,
		"longitude": -75.4,
		"world_area_code": 67,
		"city_name_geo_name_id": "5699552",
		"country_name_geo_name_id": 6252001,
		"coordinates": { "lon": -75.4, "lat": 42.316667 }
	},
	{
		"column_1": "TMJ",
		"airport_name": "Termez",
		"city_name": "Termez",
		"country_name": "Uzbekistan",
		"country_code": "UZ",
		"latitude": 37.224167,
		"longitude": 67.278333,
		"world_area_code": 788,
		"city_name_geo_name_id": "1215957",
		"country_name_geo_name_id": 1512440,
		"coordinates": { "lon": 67.278333, "lat": 37.224167 }
	},
	{
		"column_1": "THU",
		"airport_name": "Pituffik",
		"city_name": "Pituffik",
		"country_name": "Greenland",
		"country_code": "GL",
		"latitude": 76.547778,
		"longitude": -68.842778,
		"world_area_code": 975,
		"city_name_geo_name_id": "\\N",
		"country_name_geo_name_id": 3425505,
		"coordinates": { "lon": -68.842778, "lat": 76.547778 }
	},
	{
		"column_1": "SAP",
		"airport_name": "Ramon Villeda Morales International",
		"city_name": "San Pedro Sula",
		"country_name": "Honduras",
		"country_code": "HN",
		"latitude": 15.452778,
		"longitude": -87.923611,
		"world_area_code": 131,
		"city_name_geo_name_id": "3601782",
		"country_name_geo_name_id": 3608932,
		"coordinates": { "lon": -87.923611, "lat": 15.452778 }
	},
	{
		"column_1": "YBV",
		"airport_name": "Berens River",
		"city_name": "Berens River",
		"country_name": "Canada",
		"country_code": "CA",
		"latitude": 52.433333,
		"longitude": -97.033333,
		"world_area_code": 906,
		"city_name_geo_name_id": "\\N",
		"country_name_geo_name_id": 6251999,
		"coordinates": { "lon": -97.033333, "lat": 52.433333 }
	},
	{
		"column_1": "RAI",
		"airport_name": "Francisco Mendes",
		"city_name": "Praia",
		"country_name": "Cape Verde",
		"country_code": "CV",
		"latitude": 14.925278,
		"longitude": -23.503056,
		"world_area_code": 507,
		"city_name_geo_name_id": "3374333",
		"country_name_geo_name_id": 3374766,
		"coordinates": { "lon": -23.503056, "lat": 14.925278 }
	},
	{
		"column_1": "NNG",
		"airport_name": "Nanning",
		"city_name": "Nanning",
		"country_name": "China",
		"country_code": "CN",
		"latitude": 22.783333,
		"longitude": 108.0,
		"world_area_code": 713,
		"city_name_geo_name_id": "1799869",
		"country_name_geo_name_id": 1814991,
		"coordinates": { "lon": 108.0, "lat": 22.783333 }
	},
	{
		"column_1": "PVO",
		"airport_name": "Reales Tamarindos",
		"city_name": "Portoviejo",
		"country_name": "Ecuador",
		"country_code": "EC",
		"latitude": -1.034167,
		"longitude": -80.467222,
		"world_area_code": 337,
		"city_name_geo_name_id": "3652943",
		"country_name_geo_name_id": 3658394,
		"coordinates": { "lon": -80.467222, "lat": -1.034167 }
	},
	{
		"column_1": "SBU",
		"airport_name": "Springbok",
		"city_name": "Springbok",
		"country_name": "South Africa",
		"country_code": "ZA",
		"latitude": -29.683333,
		"longitude": 17.95,
		"world_area_code": 562,
		"city_name_geo_name_id": "3361142",
		"country_name_geo_name_id": 953987,
		"coordinates": { "lon": 17.95, "lat": -29.683333 }
	},
	{
		"column_1": "PBM",
		"airport_name": "Zanderij Intl",
		"city_name": "Paramaribo",
		"country_name": "Suriname",
		"country_code": "SR",
		"latitude": 5.452778,
		"longitude": -55.187778,
		"world_area_code": 379,
		"city_name_geo_name_id": "3383330",
		"country_name_geo_name_id": 3382998,
		"coordinates": { "lon": -55.187778, "lat": 5.452778 }
	},
	{
		"column_1": "HYC",
		"airport_name": "High Wycombe",
		"city_name": "High Wycombe",
		"country_name": "United Kingdom",
		"country_code": "GB",
		"latitude": 51.633333,
		"longitude": -0.766667,
		"world_area_code": 493,
		"city_name_geo_name_id": "2646914",
		"country_name_geo_name_id": 2635167,
		"coordinates": { "lon": -0.766667, "lat": 51.633333 }
	},
	{
		"column_1": "ZSH",
		"airport_name": "Bus Station",
		"city_name": "Santa Fe",
		"country_name": "United States",
		"country_code": "US",
		"latitude": 1.366667,
		"longitude": -77.033333,
		"world_area_code": 67,
		"city_name_geo_name_id": "5490263",
		"country_name_geo_name_id": 6252001,
		"coordinates": { "lon": -77.033333, "lat": 1.366667 }
	},
	{
		"column_1": "DIN",
		"airport_name": "Dien Bien",
		"city_name": "Dien Bien Phu",
		"country_name": "Viet Nam",
		"country_code": "VN",
		"latitude": 21.383333,
		"longitude": 103.016667,
		"world_area_code": 791,
		"city_name_geo_name_id": "1583477",
		"country_name_geo_name_id": 1562822,
		"coordinates": { "lon": 103.016667, "lat": 21.383333 }
	},
	{
		"column_1": "YLT",
		"airport_name": "Alert",
		"city_name": "Alert",
		"country_name": "Canada",
		"country_code": "CA",
		"latitude": 82.516667,
		"longitude": -62.283333,
		"world_area_code": 906,
		"city_name_geo_name_id": "\\N",
		"country_name_geo_name_id": 6251999,
		"coordinates": { "lon": -62.283333, "lat": 82.516667 }
	},
	{
		"column_1": "ZQS",
		"airport_name": "Queen Charlotte Is",
		"city_name": "Queen Charlotte Is",
		"country_name": "Canada",
		"country_code": "CA",
		"latitude": 53.0,
		"longitude": -132.0,
		"world_area_code": 906,
		"city_name_geo_name_id": "\\N",
		"country_name_geo_name_id": 6251999,
		"coordinates": { "lon": -132.0, "lat": 53.0 }
	},
	{
		"column_1": "MIX",
		"airport_name": "Miriti",
		"city_name": "Miriti",
		"country_name": "Colombia",
		"country_code": "CO",
		"latitude": -1.133333,
		"longitude": -70.25,
		"world_area_code": 327,
		"city_name_geo_name_id": "\\N",
		"country_name_geo_name_id": 3686121,
		"coordinates": { "lon": -70.25, "lat": -1.133333 }
	},
	{
		"column_1": "BRQ",
		"airport_name": "Turany",
		"city_name": "Brno",
		"country_name": "Czech Republic",
		"country_code": "CZ",
		"latitude": 49.151389,
		"longitude": 16.694444,
		"world_area_code": 418,
		"city_name_geo_name_id": "3078610",
		"country_name_geo_name_id": 3077311,
		"coordinates": { "lon": 16.694444, "lat": 49.151389 }
	},
	{
		"column_1": "SCD",
		"airport_name": "Sulaco",
		"city_name": "Sulaco",
		"country_name": "Honduras",
		"country_code": "HN",
		"latitude": 14.925,
		"longitude": -87.258333,
		"world_area_code": 131,
		"city_name_geo_name_id": "3601159",
		"country_name_geo_name_id": 3608932,
		"coordinates": { "lon": -87.258333, "lat": 14.925 }
	},
	{
		"column_1": "IXJ",
		"airport_name": "Satwari",
		"city_name": "Jammu",
		"country_name": "India",
		"country_code": "IN",
		"latitude": 32.683333,
		"longitude": 74.833333,
		"world_area_code": 733,
		"city_name_geo_name_id": "1269321",
		"country_name_geo_name_id": 1269750,
		"coordinates": { "lon": 74.833333, "lat": 32.683333 }
	},
	{
		"column_1": "IHR",
		"airport_name": "Iran Shahr",
		"city_name": "Iran Shahr",
		"country_name": "Iran",
		"country_code": "IR",
		"latitude": 35.614444,
		"longitude": 51.311389,
		"world_area_code": 632,
		"city_name_geo_name_id": "\\N",
		"country_name_geo_name_id": 130758,
		"coordinates": { "lon": 51.311389, "lat": 35.614444 }
	},
	{
		"column_1": "KID",
		"airport_name": "Kristianstad",
		"city_name": "Kristianstad",
		"country_name": "Sweden",
		"country_code": "SE",
		"latitude": 55.920556,
		"longitude": 14.085278,
		"world_area_code": 484,
		"city_name_geo_name_id": "2699310",
		"country_name_geo_name_id": 2661886,
		"coordinates": { "lon": 14.085278, "lat": 55.920556 }
	},
	{
		"column_1": "ZBP",
		"airport_name": "Baltimore Rail",
		"city_name": "Baltimore",
		"country_name": "United States",
		"country_code": "US",
		"latitude": 4.666667,
		"longitude": -74.516667,
		"world_area_code": 67,
		"city_name_geo_name_id": "4505716",
		"country_name_geo_name_id": 6252001,
		"coordinates": { "lon": -74.516667, "lat": 4.666667 }
	},
	{
		"column_1": "BOW",
		"airport_name": "Bartow",
		"city_name": "Bartow",
		"country_name": "United States",
		"country_code": "US",
		"latitude": 27.933333,
		"longitude": -81.783333,
		"world_area_code": 67,
		"city_name_geo_name_id": "4146723",
		"country_name_geo_name_id": 6252001,
		"coordinates": { "lon": -81.783333, "lat": 27.933333 }
	},
	{
		"column_1": "CCQ",
		"airport_name": "Cachoeira",
		"city_name": "Cachoeira",
		"country_name": "Brazil",
		"country_code": "BR",
		"latitude": -12.6,
		"longitude": -38.966667,
		"world_area_code": 316,
		"city_name_geo_name_id": "3468535",
		"country_name_geo_name_id": 3469034,
		"coordinates": { "lon": -38.966667, "lat": -12.6 }
	},
	{
		"column_1": "FEJ",
		"airport_name": "Feijo",
		"city_name": "Feijo",
		"country_name": "Brazil",
		"country_code": "BR",
		"latitude": -7.0,
		"longitude": -36.016667,
		"world_area_code": 316,
		"city_name_geo_name_id": "3664243",
		"country_name_geo_name_id": 3469034,
		"coordinates": { "lon": -36.016667, "lat": -7.0 }
	},
	{
		"column_1": "THE",
		"airport_name": "Senador Petr\u00f4nio Portella",
		"city_name": "Teresina",
		"country_name": "Brazil",
		"country_code": "BR",
		"latitude": -5.06,
		"longitude": -42.823611,
		"world_area_code": 316,
		"city_name_geo_name_id": "3386496",
		"country_name_geo_name_id": 3469034,
		"coordinates": { "lon": -42.823611, "lat": -5.06 }
	},
	{
		"column_1": "IXC",
		"airport_name": "Chandigarh",
		"city_name": "Chandigarh",
		"country_name": "India",
		"country_code": "IN",
		"latitude": 30.666667,
		"longitude": 76.8,
		"world_area_code": 733,
		"city_name_geo_name_id": "1274746",
		"country_name_geo_name_id": 1269750,
		"coordinates": { "lon": 76.8, "lat": 30.666667 }
	},
	{
		"column_1": "DBD",
		"airport_name": "Dhanbad",
		"city_name": "Dhanbad",
		"country_name": "India",
		"country_code": "IN",
		"latitude": 23.8,
		"longitude": 86.45,
		"world_area_code": 733,
		"city_name_geo_name_id": "1272979",
		"country_name_geo_name_id": 1269750,
		"coordinates": { "lon": 86.45, "lat": 23.8 }
	},
	{
		"column_1": "ACN",
		"airport_name": "International",
		"city_name": "Ciudad Acuna",
		"country_name": "Mexico",
		"country_code": "MX",
		"latitude": 29.3,
		"longitude": -100.916667,
		"world_area_code": 148,
		"city_name_geo_name_id": "4013728",
		"country_name_geo_name_id": 3996063,
		"coordinates": { "lon": -100.916667, "lat": 29.3 }
	},
	{
		"column_1": "AVK",
		"airport_name": "Arvaikheer",
		"city_name": "Arvaikheer",
		"country_name": "Mongolia",
		"country_code": "MN",
		"latitude": 46.266667,
		"longitude": 102.783333,
		"world_area_code": 751,
		"city_name_geo_name_id": "\\N",
		"country_name_geo_name_id": 2029969,
		"coordinates": { "lon": 102.783333, "lat": 46.266667 }
	},
	{
		"column_1": "GEA",
		"airport_name": "Magenta",
		"city_name": "Noumea",
		"country_name": "New Caledonia",
		"country_code": "NC",
		"latitude": -22.266666999999998,
		"longitude": 166.466667,
		"world_area_code": 846,
		"city_name_geo_name_id": "2139521",
		"country_name_geo_name_id": 2139685,
		"coordinates": { "lon": 166.466667, "lat": -22.266666999999998 }
	},
	{
		"column_1": "JBP",
		"airport_name": "Commerce Bus. Plaza",
		"city_name": "Los Angeles",
		"country_name": "United States",
		"country_code": "US",
		"latitude": 33.986667,
		"longitude": -118.159722,
		"world_area_code": 67,
		"city_name_geo_name_id": "5368361",
		"country_name_geo_name_id": 6252001,
		"coordinates": { "lon": -118.159722, "lat": 33.986667 }
	},
	{
		"column_1": "CRO",
		"airport_name": "Corcoran",
		"city_name": "Corcoran",
		"country_name": "United States",
		"country_code": "US",
		"latitude": 36.1,
		"longitude": -119.55,
		"world_area_code": 67,
		"city_name_geo_name_id": "5339539",
		"country_name_geo_name_id": 6252001,
		"coordinates": { "lon": -119.55, "lat": 36.1 }
	},
	{
		"column_1": "FBD",
		"airport_name": "Faizabad",
		"city_name": "Faizabad",
		"country_name": "Afghanistan",
		"country_code": "AF",
		"latitude": 37.083333,
		"longitude": 70.5,
		"world_area_code": 701,
		"city_name_geo_name_id": "1142170",
		"country_name_geo_name_id": 1149361,
		"coordinates": { "lon": 70.5, "lat": 37.083333 }
	},
	{
		"column_1": "PHE",
		"airport_name": "Port Hedland",
		"city_name": "Port Hedland",
		"country_name": "Australia",
		"country_code": "AU",
		"latitude": -20.383333,
		"longitude": 118.45,
		"world_area_code": 802,
		"city_name_geo_name_id": "2063042",
		"country_name_geo_name_id": 2077456,
		"coordinates": { "lon": 118.45, "lat": -20.383333 }
	},
	{
		"column_1": "YTG",
		"airport_name": "Sullivan Bay",
		"city_name": "Sullivan Bay",
		"country_name": "Canada",
		"country_code": "CA",
		"latitude": 50.883333,
		"longitude": -126.8,
		"world_area_code": 906,
		"city_name_geo_name_id": "\\N",
		"country_name_geo_name_id": 6251999,
		"coordinates": { "lon": -126.8, "lat": 50.883333 }
	},
	{
		"column_1": "WUH",
		"airport_name": "Tianhe International",
		"city_name": "Wuhan",
		"country_name": "China",
		"country_code": "CN",
		"latitude": 30.783889,
		"longitude": 114.208056,
		"world_area_code": 86,
		"city_name_geo_name_id": "1791247",
		"country_name_geo_name_id": 1814991,
		"coordinates": { "lon": 114.208056, "lat": 30.783889 }
	},
	{
		"column_1": "XEN",
		"airport_name": "Xingcheng",
		"city_name": "Xingcheng",
		"country_name": "China",
		"country_code": "CN",
		"latitude": 40.733333,
		"longitude": 118.616667,
		"world_area_code": 713,
		"city_name_geo_name_id": "2033766",
		"country_name_geo_name_id": 1814991,
		"coordinates": { "lon": 118.616667, "lat": 40.733333 }
	},
	{
		"column_1": "BGB",
		"airport_name": "Booue",
		"city_name": "Booue",
		"country_name": "Gabon",
		"country_code": "GA",
		"latitude": -0.1,
		"longitude": 11.933333,
		"world_area_code": 526,
		"city_name_geo_name_id": "2401495",
		"country_name_geo_name_id": 2400553,
		"coordinates": { "lon": 11.933333, "lat": -0.1 }
	},
	{
		"column_1": "INY",
		"airport_name": "Inyati",
		"city_name": "Inyati",
		"country_name": "South Africa",
		"country_code": "ZA",
		"latitude": -24.783333,
		"longitude": 31.383333,
		"world_area_code": 562,
		"city_name_geo_name_id": "\\N",
		"country_name_geo_name_id": 953987,
		"coordinates": { "lon": 31.383333, "lat": -24.783333 }
	},
	{
		"column_1": "LAW",
		"airport_name": "Municipal",
		"city_name": "Lawton",
		"country_name": "United States",
		"country_code": "US",
		"latitude": 34.566667,
		"longitude": -98.416667,
		"world_area_code": 67,
		"city_name_geo_name_id": "4998956",
		"country_name_geo_name_id": 6252001,
		"coordinates": { "lon": -98.416667, "lat": 34.566667 }
	},
	{
		"column_1": "FMG",
		"airport_name": "Flamingo",
		"city_name": "Flamingo",
		"country_name": "Costa Rica",
		"country_code": "CR",
		"latitude": 10.416667,
		"longitude": -85.783333,
		"world_area_code": 110,
		"city_name_geo_name_id": "\\N",
		"country_name_geo_name_id": 3624060,
		"coordinates": { "lon": -85.783333, "lat": 10.416667 }
	},
	{
		"column_1": "OLO",
		"airport_name": "Olomouc",
		"city_name": "Olomouc",
		"country_name": "Czech Republic",
		"country_code": "CZ",
		"latitude": 49.416667,
		"longitude": 17.341667,
		"world_area_code": 418,
		"city_name_geo_name_id": "3069011",
		"country_name_geo_name_id": 3077311,
		"coordinates": { "lon": 17.341667, "lat": 49.416667 }
	},
	{
		"column_1": "KXU",
		"airport_name": "Katiu",
		"city_name": "Katiu",
		"country_name": "French Polynesia",
		"country_code": "PF",
		"latitude": -16.433333,
		"longitude": -1.366667,
		"world_area_code": 823,
		"city_name_geo_name_id": "\\N",
		"country_name_geo_name_id": 4020092,
		"coordinates": { "lon": -1.366667, "lat": -16.433333 }
	},
	{
		"column_1": "SPM",
		"airport_name": "Spangdahlem",
		"city_name": "Spangdahlem",
		"country_name": "Germany",
		"country_code": "DE",
		"latitude": 49.983333,
		"longitude": 6.683333,
		"world_area_code": 429,
		"city_name_geo_name_id": "\\N",
		"country_name_geo_name_id": 2921044,
		"coordinates": { "lon": 6.683333, "lat": 49.983333 }
	},
	{
		"column_1": "ECA",
		"airport_name": "Emmet County Airport",
		"city_name": "East Tawas",
		"country_name": "United States",
		"country_code": "US",
		"latitude": 44.266667,
		"longitude": -83.483333,
		"world_area_code": 67,
		"city_name_geo_name_id": "4991692",
		"country_name_geo_name_id": 6252001,
		"coordinates": { "lon": -83.483333, "lat": 44.266667 }
	},
	{
		"column_1": "PVD",
		"airport_name": "T. F. Green Airport",
		"city_name": "Providence",
		"country_name": "United States",
		"country_code": "US",
		"latitude": 41.733333,
		"longitude": -71.433333,
		"world_area_code": 67,
		"city_name_geo_name_id": "5780020",
		"country_name_geo_name_id": 6252001,
		"coordinates": { "lon": -71.433333, "lat": 41.733333 }
	},
	{
		"column_1": "LBM",
		"airport_name": "Luabo",
		"city_name": "Luabo",
		"country_name": "Mozambique",
		"country_code": "MZ",
		"latitude": -18.4,
		"longitude": 36.1,
		"world_area_code": 550,
		"city_name_geo_name_id": "\\N",
		"country_name_geo_name_id": 1036973,
		"coordinates": { "lon": 36.1, "lat": -18.4 }
	},
	{
		"column_1": "YAT",
		"airport_name": "Attawapiskat",
		"city_name": "Attawapiskat",
		"country_name": "Canada",
		"country_code": "CA",
		"latitude": 52.927778,
		"longitude": -82.431389,
		"world_area_code": 906,
		"city_name_geo_name_id": "\\N",
		"country_name_geo_name_id": 6251999,
		"coordinates": { "lon": -82.431389, "lat": 52.927778 }
	},
	{
		"column_1": "YWF",
		"airport_name": "Dwtown Waterfront H/P",
		"city_name": "Halifax",
		"country_name": "Canada",
		"country_code": "CA",
		"latitude": 44.65,
		"longitude": -63.6,
		"world_area_code": 906,
		"city_name_geo_name_id": "6324729",
		"country_name_geo_name_id": 6251999,
		"coordinates": { "lon": -63.6, "lat": 44.65 }
	},
	{
		"column_1": "ZPB",
		"airport_name": "Sachigo Lake",
		"city_name": "Sachigo Lake",
		"country_name": "Canada",
		"country_code": "CA",
		"latitude": 53.816667,
		"longitude": -92.133333,
		"world_area_code": 906,
		"city_name_geo_name_id": "\\N",
		"country_name_geo_name_id": 6251999,
		"coordinates": { "lon": -92.133333, "lat": 53.816667 }
	},
	{
		"column_1": "AEH",
		"airport_name": "Abecher",
		"city_name": "Abecher",
		"country_name": "Chad",
		"country_code": "TD",
		"latitude": 13.85,
		"longitude": 20.85,
		"world_area_code": 511,
		"city_name_geo_name_id": "245785",
		"country_name_geo_name_id": 2434508,
		"coordinates": { "lon": 20.85, "lat": 13.85 }
	},
	{
		"column_1": "HME",
		"airport_name": "Oued Irara Apt",
		"city_name": "Hassi Messaoud",
		"country_name": "Algeria",
		"country_code": "DZ",
		"latitude": 31.666667,
		"longitude": 6.15,
		"world_area_code": 500,
		"city_name_geo_name_id": "\\N",
		"country_name_geo_name_id": 2589581,
		"coordinates": { "lon": 6.15, "lat": 31.666667 }
	},
	{
		"column_1": "KKJ",
		"airport_name": "Kita Kyushu",
		"city_name": "Kita Kyushu",
		"country_name": "Japan",
		"country_code": "JP",
		"latitude": 33.845556,
		"longitude": 131.035,
		"world_area_code": 736,
		"city_name_geo_name_id": "\\N",
		"country_name_geo_name_id": 1861060,
		"coordinates": { "lon": 131.035, "lat": 33.845556 }
	},
	{
		"column_1": "VNO",
		"airport_name": "Vilnius",
		"city_name": "Vilnius",
		"country_name": "Lithuania",
		"country_code": "LT",
		"latitude": 54.633333,
		"longitude": 25.283333,
		"world_area_code": 452,
		"city_name_geo_name_id": "593116",
		"country_name_geo_name_id": 597427,
		"coordinates": { "lon": 25.283333, "lat": 54.633333 }
	},
	{
		"column_1": "GBS",
		"airport_name": "Port Fitzroy",
		"city_name": "Port Fitzroy",
		"country_name": "New Zealand",
		"country_code": "NZ",
		"latitude": -36.183333,
		"longitude": 175.333333,
		"world_area_code": 851,
		"city_name_geo_name_id": "\\N",
		"country_name_geo_name_id": 2186224,
		"coordinates": { "lon": 175.333333, "lat": -36.183333 }
	},
	{
		"column_1": "MQO",
		"airport_name": "Malam",
		"city_name": "Malam",
		"country_name": "Papua New Guinea",
		"country_code": "PG",
		"latitude": 13.25,
		"longitude": 6.75,
		"world_area_code": 804,
		"city_name_geo_name_id": "\\N",
		"country_name_geo_name_id": 2088628,
		"coordinates": { "lon": 6.75, "lat": 13.25 }
	},
	{
		"column_1": "NRR",
		"airport_name": "Roosevelt NAS",
		"city_name": "Roosevelt Roads",
		"country_name": "Puerto Rico",
		"country_code": "PR",
		"latitude": 51.5,
		"longitude": 4.5,
		"world_area_code": 3,
		"city_name_geo_name_id": "\\N",
		"country_name_geo_name_id": 4566966,
		"coordinates": { "lon": 4.5, "lat": 51.5 }
	},
	{
		"column_1": "KLZ",
		"airport_name": "Kleinzee",
		"city_name": "Kleinzee",
		"country_name": "South Africa",
		"country_code": "ZA",
		"latitude": -29.683333,
		"longitude": 17.066667,
		"world_area_code": 562,
		"city_name_geo_name_id": "\\N",
		"country_name_geo_name_id": 953987,
		"coordinates": { "lon": 17.066667, "lat": -29.683333 }
	},
	{
		"column_1": "EDW",
		"airport_name": "Edwards AFB",
		"city_name": "Edwards AFB",
		"country_name": "United States",
		"country_code": "US",
		"latitude": 34.9,
		"longitude": -117.883333,
		"world_area_code": 67,
		"city_name_geo_name_id": "\\N",
		"country_name_geo_name_id": 6252001,
		"coordinates": { "lon": -117.883333, "lat": 34.9 }
	},
	{
		"column_1": "MQX",
		"airport_name": "Makale",
		"city_name": "Makale",
		"country_name": "Ethiopia",
		"country_code": "ET",
		"latitude": 13.466667,
		"longitude": 39.516667,
		"world_area_code": 522,
		"city_name_geo_name_id": "\\N",
		"country_name_geo_name_id": 337996,
		"coordinates": { "lon": 39.516667, "lat": 13.466667 }
	},
	{
		"column_1": "PKY",
		"airport_name": "Palangkaraya",
		"city_name": "Palangkaraya",
		"country_name": "Indonesia",
		"country_code": "ID",
		"latitude": -2.216667,
		"longitude": 113.933333,
		"world_area_code": 832,
		"city_name_geo_name_id": "\\N",
		"country_name_geo_name_id": 1643084,
		"coordinates": { "lon": 113.933333, "lat": -2.216667 }
	},
	{
		"column_1": "CBI",
		"airport_name": "Cape Barren Island",
		"city_name": "Cape Barren Island",
		"country_name": "Australia",
		"country_code": "AU",
		"latitude": -31.983333,
		"longitude": 132.15,
		"world_area_code": 802,
		"city_name_geo_name_id": "\\N",
		"country_name_geo_name_id": 2077456,
		"coordinates": { "lon": 132.15, "lat": -31.983333 }
	},
	{
		"column_1": "CMH",
		"airport_name": "Port Columbus Intl",
		"city_name": "Columbus",
		"country_name": "United States",
		"country_code": "US",
		"latitude": 40.0,
		"longitude": -82.883333,
		"world_area_code": 67,
		"city_name_geo_name_id": "5645893",
		"country_name_geo_name_id": 6252001,
		"coordinates": { "lon": -82.883333, "lat": 40.0 }
	},
	{
		"column_1": "POY",
		"airport_name": "Powell",
		"city_name": "Powell",
		"country_name": "United States",
		"country_code": "US",
		"latitude": 44.866667,
		"longitude": -108.8,
		"world_area_code": 67,
		"city_name_geo_name_id": "5835606",
		"country_name_geo_name_id": 6252001,
		"coordinates": { "lon": -108.8, "lat": 44.866667 }
	},
	{
		"column_1": "UPC",
		"airport_name": "Puerto La Cruz",
		"city_name": "Puerto La Cruz",
		"country_name": "Venezuela",
		"country_code": "VZ",
		"latitude": 28.4,
		"longitude": -16.55,
		"world_area_code": 482,
		"city_name_geo_name_id": "\\N",
		"country_name_geo_name_id": null,
		"coordinates": { "lon": -16.55, "lat": 28.4 }
	},
	{
		"column_1": "CHT",
		"airport_name": "Karewa",
		"city_name": "Chatham Island",
		"country_name": "New Zealand",
		"country_code": "NZ",
		"latitude": -43.916667,
		"longitude": 176.5,
		"world_area_code": 851,
		"city_name_geo_name_id": "\\N",
		"country_name_geo_name_id": 2186224,
		"coordinates": { "lon": 176.5, "lat": -43.916667 }
	},
	{
		"column_1": "MJJ",
		"airport_name": "Moki",
		"city_name": "Moki",
		"country_name": "Papua New Guinea",
		"country_code": "PG",
		"latitude": -5.7,
		"longitude": 145.25,
		"world_area_code": 804,
		"city_name_geo_name_id": "\\N",
		"country_name_geo_name_id": 2088628,
		"coordinates": { "lon": 145.25, "lat": -5.7 }
	},
	{
		"column_1": "POJ",
		"airport_name": "Patos De Minas",
		"city_name": "Patos De Minas",
		"country_name": "Brazil",
		"country_code": "BR",
		"latitude": 40.683333,
		"longitude": 19.65,
		"world_area_code": 316,
		"city_name_geo_name_id": "3454783",
		"country_name_geo_name_id": 3469034,
		"coordinates": { "lon": 19.65, "lat": 40.683333 }
	},
	{
		"column_1": "YIF",
		"airport_name": "Pakuashipi",
		"city_name": "Pakuashipi",
		"country_name": "Canada",
		"country_code": "CA",
		"latitude": 51.216667,
		"longitude": -58.666667,
		"world_area_code": 906,
		"city_name_geo_name_id": "\\N",
		"country_name_geo_name_id": 6251999,
		"coordinates": { "lon": -58.666667, "lat": 51.216667 }
	},
	{
		"column_1": "YRR",
		"airport_name": "Stuart Island",
		"city_name": "Stuart Island",
		"country_name": "Canada",
		"country_code": "CA",
		"latitude": 50.416667,
		"longitude": -125.166667,
		"world_area_code": 906,
		"city_name_geo_name_id": "\\N",
		"country_name_geo_name_id": 6251999,
		"coordinates": { "lon": -125.166667, "lat": 50.416667 }
	},
	{
		"column_1": "LTL",
		"airport_name": "Lastourville",
		"city_name": "Lastourville",
		"country_name": "Gabon",
		"country_code": "GA",
		"latitude": -0.833333,
		"longitude": 12.716667,
		"world_area_code": 526,
		"city_name_geo_name_id": "2399870",
		"country_name_geo_name_id": 2400553,
		"coordinates": { "lon": 12.716667, "lat": -0.833333 }
	},
	{
		"column_1": "OMK",
		"airport_name": "Municipal",
		"city_name": "Omak",
		"country_name": "United States",
		"country_code": "US",
		"latitude": 48.4,
		"longitude": -119.533333,
		"world_area_code": 67,
		"city_name_geo_name_id": "5805734",
		"country_name_geo_name_id": 6252001,
		"coordinates": { "lon": -119.533333, "lat": 48.4 }
	},
	{
		"column_1": "KEB",
		"airport_name": "Nanwalek",
		"city_name": "Nanwalek",
		"country_name": "United States",
		"country_code": "US",
		"latitude": 59.366667,
		"longitude": -151.916667,
		"world_area_code": 67,
		"city_name_geo_name_id": "\\N",
		"country_name_geo_name_id": 6252001,
		"coordinates": { "lon": -151.916667, "lat": 59.366667 }
	},
	{
		"column_1": "TEK",
		"airport_name": "Tatitlek",
		"city_name": "Tatitlek",
		"country_name": "United States",
		"country_code": "US",
		"latitude": 41.633333,
		"longitude": 24.95,
		"world_area_code": 67,
		"city_name_geo_name_id": "\\N",
		"country_name_geo_name_id": 6252001,
		"coordinates": { "lon": 24.95, "lat": 41.633333 }
	},
	{
		"column_1": "RRA",
		"airport_name": "Ronda",
		"city_name": "Ronda",
		"country_name": "Spain",
		"country_code": "ES",
		"latitude": 36.733333,
		"longitude": -5.166667,
		"world_area_code": 482,
		"city_name_geo_name_id": "2511730",
		"country_name_geo_name_id": 2510769,
		"coordinates": { "lon": -5.166667, "lat": 36.733333 }
	},
	{
		"column_1": "GBD",
		"airport_name": "Great Bend",
		"city_name": "Great Bend",
		"country_name": "United States",
		"country_code": "US",
		"latitude": 38.35,
		"longitude": -98.866667,
		"world_area_code": 67,
		"city_name_geo_name_id": "4272340",
		"country_name_geo_name_id": 6252001,
		"coordinates": { "lon": -98.866667, "lat": 38.35 }
	},
	{
		"column_1": "FYM",
		"airport_name": "Municipal",
		"city_name": "Fayetteville",
		"country_name": "United States",
		"country_code": "US",
		"latitude": 35.15,
		"longitude": -86.583333,
		"world_area_code": 67,
		"city_name_geo_name_id": "5116968",
		"country_name_geo_name_id": 6252001,
		"coordinates": { "lon": -86.583333, "lat": 35.15 }
	},
	{
		"column_1": "VDM",
		"airport_name": "Viedma",
		"city_name": "Viedma",
		"country_name": "Argentina",
		"country_code": "AR",
		"latitude": -40.85,
		"longitude": -63.016667,
		"world_area_code": 303,
		"city_name_geo_name_id": "3832899",
		"country_name_geo_name_id": 3865483,
		"coordinates": { "lon": -63.016667, "lat": -40.85 }
	},
	{
		"column_1": "KYK",
		"airport_name": "Karluk",
		"city_name": "Karluk",
		"country_name": "United States",
		"country_code": "US",
		"latitude": 57.566667,
		"longitude": -154.416667,
		"world_area_code": 67,
		"city_name_geo_name_id": "\\N",
		"country_name_geo_name_id": 6252001,
		"coordinates": { "lon": -154.416667, "lat": 57.566667 }
	},
	{
		"column_1": "KLW",
		"airport_name": "Klawock",
		"city_name": "Klawock",
		"country_name": "United States",
		"country_code": "US",
		"latitude": 55.55,
		"longitude": -133.1,
		"world_area_code": 67,
		"city_name_geo_name_id": "\\N",
		"country_name_geo_name_id": 6252001,
		"coordinates": { "lon": -133.1, "lat": 55.55 }
	},
	{
		"column_1": "NGR",
		"airport_name": "Ningerum",
		"city_name": "Ningerum",
		"country_name": "Papua New Guinea",
		"country_code": "PG",
		"latitude": -5.666667,
		"longitude": 141.116667,
		"world_area_code": 804,
		"city_name_geo_name_id": "\\N",
		"country_name_geo_name_id": 2088628,
		"coordinates": { "lon": 141.116667, "lat": -5.666667 }
	},
	{
		"column_1": "NAZ",
		"airport_name": "Nana",
		"city_name": "Star Habour",
		"country_name": "Solomon Islands",
		"country_code": "SB",
		"latitude": -10.783333,
		"longitude": 162.3,
		"world_area_code": 874,
		"city_name_geo_name_id": "\\N",
		"country_name_geo_name_id": 2103350,
		"coordinates": { "lon": 162.3, "lat": -10.783333 }
	},
	{
		"column_1": "MZG",
		"airport_name": "Makung",
		"city_name": "Makung",
		"country_name": "Taiwan",
		"country_code": "TW",
		"latitude": 23.533333,
		"longitude": 119.583333,
		"world_area_code": 781,
		"city_name_geo_name_id": "\\N",
		"country_name_geo_name_id": 1668284,
		"coordinates": { "lon": 119.583333, "lat": 23.533333 }
	},
	{
		"column_1": "GWE",
		"airport_name": "Gweru",
		"city_name": "Gweru",
		"country_name": "Zimbabwe",
		"country_code": "ZW",
		"latitude": -19.45,
		"longitude": 29.816667,
		"world_area_code": 565,
		"city_name_geo_name_id": "890422",
		"country_name_geo_name_id": 878675,
		"coordinates": { "lon": 29.816667, "lat": -19.45 }
	},
	{
		"column_1": "MJU",
		"airport_name": "Mamuju",
		"city_name": "Mamuju",
		"country_name": "Indonesia",
		"country_code": "ID",
		"latitude": -2.683333,
		"longitude": 118.9,
		"world_area_code": 832,
		"city_name_geo_name_id": "\\N",
		"country_name_geo_name_id": 1643084,
		"coordinates": { "lon": 118.9, "lat": -2.683333 }
	},
	{
		"column_1": "BCZ",
		"airport_name": "Bickerton Island",
		"city_name": "Bickerton Island",
		"country_name": "Australia",
		"country_code": "AU",
		"latitude": -13.783333,
		"longitude": 137.8,
		"world_area_code": 802,
		"city_name_geo_name_id": "\\N",
		"country_name_geo_name_id": 2077456,
		"coordinates": { "lon": 137.8, "lat": -13.783333 }
	},
	{
		"column_1": "GPN",
		"airport_name": "Garden Point",
		"city_name": "Garden Point",
		"country_name": "Australia",
		"country_code": "AU",
		"latitude": -11.4,
		"longitude": 130.433333,
		"world_area_code": 802,
		"city_name_geo_name_id": "\\N",
		"country_name_geo_name_id": 2077456,
		"coordinates": { "lon": 130.433333, "lat": -11.4 }
	},
	{
		"column_1": "VCP",
		"airport_name": "Viracopos",
		"city_name": "Campinas, Sao Paulo",
		"country_name": "Brazil",
		"country_code": "BR",
		"latitude": -23.0075,
		"longitude": -47.134444,
		"world_area_code": 316,
		"city_name_geo_name_id": "3467865",
		"country_name_geo_name_id": 3469034,
		"coordinates": { "lon": -47.134444, "lat": -23.0075 }
	},
	{
		"column_1": "ROU",
		"airport_name": "Rousse",
		"city_name": "Rousse",
		"country_name": "Bulgaria",
		"country_code": "BG",
		"latitude": 43.833333,
		"longitude": 25.983333,
		"world_area_code": 411,
		"city_name_geo_name_id": "727523",
		"country_name_geo_name_id": 732800,
		"coordinates": { "lon": 25.983333, "lat": 43.833333 }
	},
	{
		"column_1": "YGV",
		"airport_name": "Havre St Pierre",
		"city_name": "Havre St Pierre",
		"country_name": "Canada",
		"country_code": "CA",
		"latitude": 50.25,
		"longitude": -63.583333,
		"world_area_code": 906,
		"city_name_geo_name_id": "\\N",
		"country_name_geo_name_id": 6251999,
		"coordinates": { "lon": -63.583333, "lat": 50.25 }
	},
	{
		"column_1": "KAD",
		"airport_name": "Kaduna",
		"city_name": "Kaduna",
		"country_name": "Nigeria",
		"country_code": "NG",
		"latitude": 10.6,
		"longitude": 7.45,
		"world_area_code": 555,
		"city_name_geo_name_id": "2335727",
		"country_name_geo_name_id": 2328926,
		"coordinates": { "lon": 7.45, "lat": 10.6 }
	},
	{
		"column_1": "SUB",
		"airport_name": "Juanda",
		"city_name": "Surabaya",
		"country_name": "Indonesia",
		"country_code": "ID",
		"latitude": -7.379722,
		"longitude": 112.786944,
		"world_area_code": 832,
		"city_name_geo_name_id": "1625822",
		"country_name_geo_name_id": 1643084,
		"coordinates": { "lon": 112.786944, "lat": -7.379722 }
	},
	{
		"column_1": "MWK",
		"airport_name": "Matak",
		"city_name": "Matak",
		"country_name": "Indonesia",
		"country_code": "ID",
		"latitude": 3.348056,
		"longitude": 106.258056,
		"world_area_code": 832,
		"city_name_geo_name_id": "\\N",
		"country_name_geo_name_id": 1643084,
		"coordinates": { "lon": 106.258056, "lat": 3.348056 }
	},
	{
		"column_1": "IVG",
		"airport_name": "Ivangrad",
		"city_name": "Berane",
		"country_name": "Montenegro",
		"country_code": "ME",
		"latitude": 42.833333,
		"longitude": 19.85,
		"world_area_code": 382,
		"city_name_geo_name_id": "\\N",
		"country_name_geo_name_id": 3194884,
		"coordinates": { "lon": 19.85, "lat": 42.833333 }
	},
	{
		"column_1": "LSH",
		"airport_name": "Lashio",
		"city_name": "Lashio",
		"country_name": "Myanmar",
		"country_code": "MM",
		"latitude": 22.966667,
		"longitude": 97.75,
		"world_area_code": 706,
		"city_name_geo_name_id": "1314759",
		"country_name_geo_name_id": 1327865,
		"coordinates": { "lon": 97.75, "lat": 22.966667 }
	},
	{
		"column_1": "RKU",
		"airport_name": "Kairuku",
		"city_name": "Yule Island",
		"country_name": "Papua New Guinea",
		"country_code": "PG",
		"latitude": -8.816667,
		"longitude": 146.516667,
		"world_area_code": 804,
		"city_name_geo_name_id": "\\N",
		"country_name_geo_name_id": 2088628,
		"coordinates": { "lon": 146.516667, "lat": -8.816667 }
	},
	{
		"column_1": "PPX",
		"airport_name": "Param",
		"city_name": "Param",
		"country_name": "Papua New Guinea",
		"country_code": "PG",
		"latitude": -9.995833,
		"longitude": 149.591667,
		"world_area_code": 804,
		"city_name_geo_name_id": "\\N",
		"country_name_geo_name_id": 2088628,
		"coordinates": { "lon": 149.591667, "lat": -9.995833 }
	},
	{
		"column_1": "EML",
		"airport_name": "Emmen",
		"city_name": "Luzern",
		"country_name": "Switzerland",
		"country_code": "CH",
		"latitude": 47.0925,
		"longitude": 8.305,
		"world_area_code": 486,
		"city_name_geo_name_id": "2659811",
		"country_name_geo_name_id": 2658434,
		"coordinates": { "lon": 8.305, "lat": 47.0925 }
	},
	{
		"column_1": "SNO",
		"airport_name": "Sakon Nakhon",
		"city_name": "Sakon Nakhon",
		"country_name": "Thailand",
		"country_code": "TH",
		"latitude": 17.15,
		"longitude": 104.133333,
		"world_area_code": 782,
		"city_name_geo_name_id": "1606790",
		"country_name_geo_name_id": 1605651,
		"coordinates": { "lon": 104.133333, "lat": 17.15 }
	},
	{
		"column_1": "LTH",
		"airport_name": "Lathrop Wells",
		"city_name": "Lathrop Wells",
		"country_name": "United States",
		"country_code": "US",
		"latitude": 36.666667,
		"longitude": -116.65,
		"world_area_code": 67,
		"city_name_geo_name_id": "\\N",
		"country_name_geo_name_id": 6252001,
		"coordinates": { "lon": -116.65, "lat": 36.666667 }
	},
	{
		"column_1": "KKW",
		"airport_name": "Kikwit",
		"city_name": "Kikwit",
		"country_name": "Zaire",
		"country_code": "ZR",
		"latitude": -5.416667,
		"longitude": 18.95,
		"world_area_code": 517,
		"city_name_geo_name_id": "\\N",
		"country_name_geo_name_id": null,
		"coordinates": { "lon": 18.95, "lat": -5.416667 }
	},
	{
		"column_1": "DPE",
		"airport_name": "Dieppe",
		"city_name": "Dieppe",
		"country_name": "France",
		"country_code": "FR",
		"latitude": 49.933333,
		"longitude": 1.083333,
		"world_area_code": 427,
		"city_name_geo_name_id": "3021411",
		"country_name_geo_name_id": 3017382,
		"coordinates": { "lon": 1.083333, "lat": 49.933333 }
	},
	{
		"column_1": "MJR",
		"airport_name": "Miramar",
		"city_name": "Miramar",
		"country_name": "Argentina",
		"country_code": "AR",
		"latitude": -38.216667,
		"longitude": -57.866667,
		"world_area_code": 303,
		"city_name_geo_name_id": "\\N",
		"country_name_geo_name_id": 3865483,
		"coordinates": { "lon": -57.866667, "lat": -38.216667 }
	},
	{
		"column_1": "SGP",
		"airport_name": "Shay Gap",
		"city_name": "Shay Gap",
		"country_name": "Australia",
		"country_code": "AU",
		"latitude": -20.483333,
		"longitude": 120.1,
		"world_area_code": 802,
		"city_name_geo_name_id": "\\N",
		"country_name_geo_name_id": 2077456,
		"coordinates": { "lon": 120.1, "lat": -20.483333 }
	},
	{
		"column_1": "BHY",
		"airport_name": "Beihai",
		"city_name": "Beihai",
		"country_name": "China",
		"country_code": "CN",
		"latitude": 21.483333,
		"longitude": 109.083333,
		"world_area_code": 713,
		"city_name_geo_name_id": "1816705",
		"country_name_geo_name_id": 1814991,
		"coordinates": { "lon": 109.083333, "lat": 21.483333 }
	},
	{
		"column_1": "ORC",
		"airport_name": "Orocue",
		"city_name": "Orocue",
		"country_name": "Colombia",
		"country_code": "CO",
		"latitude": 4.792222,
		"longitude": -71.356389,
		"world_area_code": 327,
		"city_name_geo_name_id": "3673536",
		"country_name_geo_name_id": 3686121,
		"coordinates": { "lon": -71.356389, "lat": 4.792222 }
	},
	{
		"column_1": "BUI",
		"airport_name": "Bokondini",
		"city_name": "Bokondini",
		"country_name": "Indonesia",
		"country_code": "ID",
		"latitude": -3.716667,
		"longitude": 138.65,
		"world_area_code": 832,
		"city_name_geo_name_id": "\\N",
		"country_name_geo_name_id": 1643084,
		"coordinates": { "lon": 138.65, "lat": -3.716667 }
	},
	{
		"column_1": "DFW",
		"airport_name": "Dallas/Fort Worth International",
		"city_name": "Dallas, TX",
		"country_name": "United States",
		"country_code": "US",
		"latitude": 32.896944,
		"longitude": -97.038056,
		"world_area_code": 67,
		"city_name_geo_name_id": "5722064",
		"country_name_geo_name_id": 6252001,
		"coordinates": { "lon": -97.038056, "lat": 32.896944 }
	},
	{
		"column_1": "DMN",
		"airport_name": "Deming",
		"city_name": "Deming",
		"country_name": "United States",
		"country_code": "US",
		"latitude": 26.951667,
		"longitude": 108.578889,
		"world_area_code": 67,
		"city_name_geo_name_id": "5464806",
		"country_name_geo_name_id": 6252001,
		"coordinates": { "lon": 108.578889, "lat": 26.951667 }
	},
	{
		"column_1": "BIX",
		"airport_name": "Keesler AFB",
		"city_name": "Biloxi",
		"country_name": "United States",
		"country_code": "US",
		"latitude": 28.666667,
		"longitude": -88.433333,
		"world_area_code": 67,
		"city_name_geo_name_id": "4418478",
		"country_name_geo_name_id": 6252001,
		"coordinates": { "lon": -88.433333, "lat": 28.666667 }
	},
	{
		"column_1": "TOR",
		"airport_name": "Municipal",
		"city_name": "Torrington",
		"country_name": "United States",
		"country_code": "US",
		"latitude": 51.8,
		"longitude": -1.6,
		"world_area_code": 67,
		"city_name_geo_name_id": "5841207",
		"country_name_geo_name_id": 6252001,
		"coordinates": { "lon": -1.6, "lat": 51.8 }
	},
	{
		"column_1": "RKH",
		"airport_name": "Rock Hill",
		"city_name": "Rock Hill",
		"country_name": "United States",
		"country_code": "US",
		"latitude": 34.933333,
		"longitude": -81.016667,
		"world_area_code": 67,
		"city_name_geo_name_id": "5134115",
		"country_name_geo_name_id": 6252001,
		"coordinates": { "lon": -81.016667, "lat": 34.933333 }
	},
	{
		"column_1": "NHA",
		"airport_name": "Nha Trang",
		"city_name": "Nha Trang",
		"country_name": "Viet Nam",
		"country_code": "VN",
		"latitude": 12.233333,
		"longitude": 109.183333,
		"world_area_code": 791,
		"city_name_geo_name_id": "1572151",
		"country_name_geo_name_id": 1562822,
		"coordinates": { "lon": 109.183333, "lat": 12.233333 }
	},
	{
		"column_1": "SWG",
		"airport_name": "Satwag",
		"city_name": "Satwag",
		"country_name": "Papua New Guinea",
		"country_code": "PG",
		"latitude": -5.883333,
		"longitude": 147.95,
		"world_area_code": 804,
		"city_name_geo_name_id": "\\N",
		"country_name_geo_name_id": 2088628,
		"coordinates": { "lon": 147.95, "lat": -5.883333 }
	},
	{
		"column_1": "RRI",
		"airport_name": "Barora",
		"city_name": "Barora",
		"country_name": "Solomon Islands",
		"country_code": "SB",
		"latitude": -7.6,
		"longitude": 158.4,
		"world_area_code": 874,
		"city_name_geo_name_id": "\\N",
		"country_name_geo_name_id": 2103350,
		"coordinates": { "lon": 158.4, "lat": -7.6 }
	},
	{
		"column_1": "AQM",
		"airport_name": "Ariquemes",
		"city_name": "Ariquemes",
		"country_name": "Brazil",
		"country_code": "BR",
		"latitude": -9.933333,
		"longitude": -63.066667,
		"world_area_code": 316,
		"city_name_geo_name_id": "3665199",
		"country_name_geo_name_id": 3469034,
		"coordinates": { "lon": -63.066667, "lat": -9.933333 }
	},
	{
		"column_1": "YBA",
		"airport_name": "Banff",
		"city_name": "Banff",
		"country_name": "Canada",
		"country_code": "CA",
		"latitude": 51.166667,
		"longitude": -115.566389,
		"world_area_code": 906,
		"city_name_geo_name_id": "5892532",
		"country_name_geo_name_id": 6251999,
		"coordinates": { "lon": -115.566389, "lat": 51.166667 }
	},
	{
		"column_1": "XCM",
		"airport_name": "Chatham",
		"city_name": "Chatham",
		"country_name": "Canada",
		"country_code": "CA",
		"latitude": 42.4,
		"longitude": -82.183333,
		"world_area_code": 906,
		"city_name_geo_name_id": "\\N",
		"country_name_geo_name_id": 6251999,
		"coordinates": { "lon": -82.183333, "lat": 42.4 }
	},
	{
		"column_1": "TNT",
		"airport_name": "Dade Collier",
		"city_name": "Miami",
		"country_name": "United States",
		"country_code": "US",
		"latitude": 25.861944,
		"longitude": -80.896944,
		"world_area_code": 67,
		"city_name_geo_name_id": "5304640",
		"country_name_geo_name_id": 6252001,
		"coordinates": { "lon": -80.896944, "lat": 25.861944 }
	},
	{
		"column_1": "SRS",
		"airport_name": "Cartagena",
		"city_name": "San Marcos",
		"country_name": "Colombia",
		"country_code": "CO",
		"latitude": 8.666667,
		"longitude": -75.133333,
		"world_area_code": 327,
		"city_name_geo_name_id": "3669346",
		"country_name_geo_name_id": 3686121,
		"coordinates": { "lon": -75.133333, "lat": 8.666667 }
	},
	{
		"column_1": "TBD",
		"airport_name": "Timbiqui",
		"city_name": "Timbiqui",
		"country_name": "Colombia",
		"country_code": "CO",
		"latitude": 2.75,
		"longitude": -77.583333,
		"world_area_code": 327,
		"city_name_geo_name_id": "3667070",
		"country_name_geo_name_id": 3686121,
		"coordinates": { "lon": -77.583333, "lat": 2.75 }
	},
	{
		"column_1": "PYO",
		"airport_name": "Putumayo",
		"city_name": "Putumayo",
		"country_name": "Ecuador",
		"country_code": "EC",
		"latitude": 0.066666999999999,
		"longitude": -75.866667,
		"world_area_code": 337,
		"city_name_geo_name_id": "\\N",
		"country_name_geo_name_id": 3658394,
		"coordinates": { "lon": -75.866667, "lat": 0.066666999999999 }
	},
	{
		"column_1": "PUK",
		"airport_name": "Pukarua",
		"city_name": "Pukarua",
		"country_name": "French Polynesia",
		"country_code": "PF",
		"latitude": -18.133333,
		"longitude": -136.0,
		"world_area_code": 823,
		"city_name_geo_name_id": "\\N",
		"country_name_geo_name_id": 4020092,
		"coordinates": { "lon": -136.0, "lat": -18.133333 }
	},
	{
		"column_1": "LLH",
		"airport_name": "Las Limas",
		"city_name": "Las Limas",
		"country_name": "Honduras",
		"country_code": "HN",
		"latitude": 15.45,
		"longitude": -87.9,
		"world_area_code": 131,
		"city_name_geo_name_id": "\\N",
		"country_name_geo_name_id": 3608932,
		"coordinates": { "lon": -87.9, "lat": 15.45 }
	},
	{
		"column_1": "KIX",
		"airport_name": "Kansai International",
		"city_name": "Osaka",
		"country_name": "Japan",
		"country_code": "JP",
		"latitude": 34.427222,
		"longitude": 135.243889,
		"world_area_code": 736,
		"city_name_geo_name_id": "1853909",
		"country_name_geo_name_id": 1861060,
		"coordinates": { "lon": 135.243889, "lat": 34.427222 }
	},
	{
		"column_1": "NQL",
		"airport_name": "Niquelandia",
		"city_name": "Niquelandia",
		"country_name": "Brazil",
		"country_code": "BR",
		"latitude": -14.45,
		"longitude": -48.45,
		"world_area_code": 316,
		"city_name_geo_name_id": "3456285",
		"country_name_geo_name_id": 3469034,
		"coordinates": { "lon": -48.45, "lat": -14.45 }
	},
	{
		"column_1": "YKT",
		"airport_name": "Klemtu",
		"city_name": "Klemtu",
		"country_name": "Canada",
		"country_code": "CA",
		"latitude": 52.6,
		"longitude": -128.516667,
		"world_area_code": 906,
		"city_name_geo_name_id": "\\N",
		"country_name_geo_name_id": 6251999,
		"coordinates": { "lon": -128.516667, "lat": 52.6 }
	},
	{
		"column_1": "RZS",
		"airport_name": "Sawan",
		"city_name": "Sawan",
		"country_name": "Pakistan",
		"country_code": "PK",
		"latitude": 33.640278,
		"longitude": 73.856944,
		"world_area_code": 764,
		"city_name_geo_name_id": "\\N",
		"country_name_geo_name_id": 1168579,
		"coordinates": { "lon": 73.856944, "lat": 33.640278 }
	},
	{
		"column_1": "RGE",
		"airport_name": "Porgera",
		"city_name": "Porgera",
		"country_name": "Papua New Guinea",
		"country_code": "PG",
		"latitude": -5.5,
		"longitude": 143.083333,
		"world_area_code": 804,
		"city_name_geo_name_id": "2088143",
		"country_name_geo_name_id": 2088628,
		"coordinates": { "lon": 143.083333, "lat": -5.5 }
	},
	{
		"column_1": "XMI",
		"airport_name": "Masasi",
		"city_name": "Masasi",
		"country_name": "Tanzania",
		"country_code": "TZ",
		"latitude": -10.733333,
		"longitude": 38.766667,
		"world_area_code": 585,
		"city_name_geo_name_id": "878058",
		"country_name_geo_name_id": 149590,
		"coordinates": { "lon": 38.766667, "lat": -10.733333 }
	},
	{
		"column_1": "IKB",
		"airport_name": "Wilkes County",
		"city_name": "Wilkesboro",
		"country_name": "United States",
		"country_code": "US",
		"latitude": 36.166667,
		"longitude": -81.15,
		"world_area_code": 67,
		"city_name_geo_name_id": "4499138",
		"country_name_geo_name_id": 6252001,
		"coordinates": { "lon": -81.15, "lat": 36.166667 }
	},
	{
		"column_1": "MQU",
		"airport_name": "Mariquita",
		"city_name": "Mariquita",
		"country_name": "Colombia",
		"country_code": "CO",
		"latitude": 5.216667,
		"longitude": -74.883333,
		"world_area_code": 327,
		"city_name_geo_name_id": "3675252",
		"country_name_geo_name_id": 3686121,
		"coordinates": { "lon": -74.883333, "lat": 5.216667 }
	},
	{
		"column_1": "MVT",
		"airport_name": "Mataiva",
		"city_name": "Mataiva",
		"country_name": "French Polynesia",
		"country_code": "PF",
		"latitude": -14.883333,
		"longitude": -148.666667,
		"world_area_code": 823,
		"city_name_geo_name_id": "\\N",
		"country_name_geo_name_id": 4020092,
		"coordinates": { "lon": -148.666667, "lat": -14.883333 }
	},
	{
		"column_1": "TBH",
		"airport_name": "Romblon",
		"city_name": "Tablas",
		"country_name": "Philippines",
		"country_code": "PH",
		"latitude": 9.528056,
		"longitude": 123.133611,
		"world_area_code": 766,
		"city_name_geo_name_id": "1957367",
		"country_name_geo_name_id": 1694008,
		"coordinates": { "lon": 123.133611, "lat": 9.528056 }
	},
	{
		"column_1": "LOE",
		"airport_name": "Loei",
		"city_name": "Loei",
		"country_name": "Thailand",
		"country_code": "TH",
		"latitude": 17.45,
		"longitude": 101.733333,
		"world_area_code": 782,
		"city_name_geo_name_id": "1609071",
		"country_name_geo_name_id": 1605651,
		"coordinates": { "lon": 101.733333, "lat": 17.45 }
	},
	{
		"column_1": "FEP",
		"airport_name": "Albertus",
		"city_name": "Freeport",
		"country_name": "United States",
		"country_code": "US",
		"latitude": 42.266667,
		"longitude": -89.583333,
		"world_area_code": 67,
		"city_name_geo_name_id": "5190486",
		"country_name_geo_name_id": 6252001,
		"coordinates": { "lon": -89.583333, "lat": 42.266667 }
	},
	{
		"column_1": "ESU",
		"airport_name": "Essaouira",
		"city_name": "Essaouira",
		"country_name": "Morocco",
		"country_code": "MA",
		"latitude": 31.066667,
		"longitude": -9.05,
		"world_area_code": 548,
		"city_name_geo_name_id": "2549263",
		"country_name_geo_name_id": 2542007,
		"coordinates": { "lon": -9.05, "lat": 31.066667 }
	},
	{
		"column_1": "FLE",
		"airport_name": "Fort Lee AAF",
		"city_name": "Petersburg",
		"country_name": "United States",
		"country_code": "US",
		"latitude": 52.3,
		"longitude": 5.833333,
		"world_area_code": 67,
		"city_name_geo_name_id": "5556338",
		"country_name_geo_name_id": 6252001,
		"coordinates": { "lon": 5.833333, "lat": 52.3 }
	},
	{
		"column_1": "JBS",
		"airport_name": "Hacienda Bus.Park H/P",
		"city_name": "Pleasanton",
		"country_name": "United States",
		"country_code": "US",
		"latitude": 37.699722,
		"longitude": -121.9,
		"world_area_code": 67,
		"city_name_geo_name_id": "5383777",
		"country_name_geo_name_id": 6252001,
		"coordinates": { "lon": -121.9, "lat": 37.699722 }
	},
	{
		"column_1": "OGV",
		"airport_name": "Ongava Game Reserve",
		"city_name": "Ongava Game Reserve",
		"country_name": "Namibia",
		"country_code": "NA",
		"latitude": -22.183333,
		"longitude": 18.533333,
		"world_area_code": 575,
		"city_name_geo_name_id": "\\N",
		"country_name_geo_name_id": 3355338,
		"coordinates": { "lon": 18.533333, "lat": -22.183333 }
	},
	{
		"column_1": "SYW",
		"airport_name": "Sehwen Sharif",
		"city_name": "Sehwen Sharif",
		"country_name": "Pakistan",
		"country_code": "PK",
		"latitude": 6.283333,
		"longitude": -8.283333,
		"world_area_code": 764,
		"city_name_geo_name_id": "\\N",
		"country_name_geo_name_id": 1168579,
		"coordinates": { "lon": -8.283333, "lat": 6.283333 }
	},
	{
		"column_1": "BBD",
		"airport_name": "Curtis Field",
		"city_name": "Brady",
		"country_name": "United States",
		"country_code": "US",
		"latitude": 31.133333,
		"longitude": -99.333333,
		"world_area_code": 67,
		"city_name_geo_name_id": "4676032",
		"country_name_geo_name_id": 6252001,
		"coordinates": { "lon": -99.333333, "lat": 31.133333 }
	},
	{
		"column_1": "TBC",
		"airport_name": "Tuba City",
		"city_name": "Tuba City",
		"country_name": "United States",
		"country_code": "US",
		"latitude": 13.466667,
		"longitude": -14.2,
		"world_area_code": 67,
		"city_name_geo_name_id": "5318279",
		"country_name_geo_name_id": 6252001,
		"coordinates": { "lon": -14.2, "lat": 13.466667 }
	},
	{
		"column_1": "LYE",
		"airport_name": "RAF Station",
		"city_name": "Lyneham",
		"country_name": "United Kingdom",
		"country_code": "GB",
		"latitude": 51.516667,
		"longitude": -1.966667,
		"world_area_code": 493,
		"city_name_geo_name_id": "2643298",
		"country_name_geo_name_id": 2635167,
		"coordinates": { "lon": -1.966667, "lat": 51.516667 }
	},
	{
		"column_1": "KNS",
		"airport_name": "King Island",
		"city_name": "King Island, Tasmania",
		"country_name": "Australia",
		"country_code": "AU",
		"latitude": -39.883056,
		"longitude": 143.883056,
		"world_area_code": 802,
		"city_name_geo_name_id": "\\N",
		"country_name_geo_name_id": 2077456,
		"coordinates": { "lon": 143.883056, "lat": -39.883056 }
	},
	{
		"column_1": "XBB",
		"airport_name": "Blubber Bay",
		"city_name": "Blubber Bay",
		"country_name": "Canada",
		"country_code": "CA",
		"latitude": 49.8,
		"longitude": -124.633333,
		"world_area_code": 906,
		"city_name_geo_name_id": "\\N",
		"country_name_geo_name_id": 6251999,
		"coordinates": { "lon": -124.633333, "lat": 49.8 }
	},
	{
		"column_1": "ZAC",
		"airport_name": "York Landing",
		"city_name": "York Landing",
		"country_name": "Canada",
		"country_code": "CA",
		"latitude": 56.083333,
		"longitude": -96.083333,
		"world_area_code": 906,
		"city_name_geo_name_id": "\\N",
		"country_name_geo_name_id": 6251999,
		"coordinates": { "lon": -96.083333, "lat": 56.083333 }
	},
	{
		"column_1": "CCK",
		"airport_name": "Cocos Islands",
		"city_name": "Cocos Islands",
		"country_name": "Cocos",
		"country_code": "CC",
		"latitude": -12.183333,
		"longitude": 96.833333,
		"world_area_code": 812,
		"city_name_geo_name_id": "\\N",
		"country_name_geo_name_id": null,
		"coordinates": { "lon": 96.833333, "lat": -12.183333 }
	},
	{
		"column_1": "SOX",
		"airport_name": "Alberto Lleras Camargo",
		"city_name": "Sogamoso",
		"country_name": "Colombia",
		"country_code": "CO",
		"latitude": 5.683333,
		"longitude": -72.95,
		"world_area_code": 327,
		"city_name_geo_name_id": "3667873",
		"country_name_geo_name_id": 3686121,
		"coordinates": { "lon": -72.95, "lat": 5.683333 }
	},
	{
		"column_1": "MMP",
		"airport_name": "Mompos",
		"city_name": "Mompos",
		"country_name": "Colombia",
		"country_code": "CO",
		"latitude": 9.25,
		"longitude": -74.433333,
		"world_area_code": 327,
		"city_name_geo_name_id": "3674597",
		"country_name_geo_name_id": 3686121,
		"coordinates": { "lon": -74.433333, "lat": 9.25 }
	},
	{
		"column_1": "IKP",
		"airport_name": "Inkerman",
		"city_name": "Inkerman",
		"country_name": "Australia",
		"country_code": "AU",
		"latitude": -16.25,
		"longitude": 141.5,
		"world_area_code": 802,
		"city_name_geo_name_id": "\\N",
		"country_name_geo_name_id": 2077456,
		"coordinates": { "lon": 141.5, "lat": -16.25 }
	},
	{
		"column_1": "ITR",
		"airport_name": "Hidroeletrica",
		"city_name": "Itumbiara",
		"country_name": "Brazil",
		"country_code": "BR",
		"latitude": -18.444722,
		"longitude": -49.213333,
		"world_area_code": 316,
		"city_name_geo_name_id": "3460522",
		"country_name_geo_name_id": 3469034,
		"coordinates": { "lon": -49.213333, "lat": -18.444722 }
	},
	{
		"column_1": "PLL",
		"airport_name": "Ponta Pelada",
		"city_name": "Manaus",
		"country_name": "Brazil",
		"country_code": "BR",
		"latitude": -3.146111,
		"longitude": -59.986389,
		"world_area_code": 316,
		"city_name_geo_name_id": "3663517",
		"country_name_geo_name_id": 3469034,
		"coordinates": { "lon": -59.986389, "lat": -3.146111 }
	},
	{
		"column_1": "KYT",
		"airport_name": "Kyauktaw",
		"city_name": "Kyauktaw",
		"country_name": "Myanmar",
		"country_code": "MM",
		"latitude": 21.4,
		"longitude": 94.133333,
		"world_area_code": 706,
		"city_name_geo_name_id": "\\N",
		"country_name_geo_name_id": 1327865,
		"coordinates": { "lon": 94.133333, "lat": 21.4 }
	},
	{
		"column_1": "JMS",
		"airport_name": "Jamestown",
		"city_name": "Jamestown",
		"country_name": "United States",
		"country_code": "US",
		"latitude": 46.933333,
		"longitude": -98.683333,
		"world_area_code": 67,
		"city_name_geo_name_id": "5360382",
		"country_name_geo_name_id": 6252001,
		"coordinates": { "lon": -98.683333, "lat": 46.933333 }
	},
	{
		"column_1": "MCF",
		"airport_name": "Mac Dill AFB",
		"city_name": "Tampa",
		"country_name": "United States",
		"country_code": "US",
		"latitude": 54.433333,
		"longitude": 23.65,
		"world_area_code": 67,
		"city_name_geo_name_id": "4174757",
		"country_name_geo_name_id": 6252001,
		"coordinates": { "lon": 23.65, "lat": 54.433333 }
	},
	{
		"column_1": "COV",
		"airport_name": "Covilha",
		"city_name": "Covilha",
		"country_name": "Portugal",
		"country_code": "PT",
		"latitude": 40.283333,
		"longitude": -7.5,
		"world_area_code": 469,
		"city_name_geo_name_id": "\\N",
		"country_name_geo_name_id": 2264397,
		"coordinates": { "lon": -7.5, "lat": 40.283333 }
	},
	{
		"column_1": "IKS",
		"airport_name": "Tiksi",
		"city_name": "Tiksi",
		"country_name": "Russian Federation",
		"country_code": "RU",
		"latitude": 71.697778,
		"longitude": 128.903056,
		"world_area_code": 770,
		"city_name_geo_name_id": "\\N",
		"country_name_geo_name_id": 2017370,
		"coordinates": { "lon": 128.903056, "lat": 71.697778 }
	},
	{
		"column_1": "PTB",
		"airport_name": "Municipal",
		"city_name": "Petersburg",
		"country_name": "United States",
		"country_code": "US",
		"latitude": 37.183333,
		"longitude": -77.516667,
		"world_area_code": 67,
		"city_name_geo_name_id": "5556338",
		"country_name_geo_name_id": 6252001,
		"coordinates": { "lon": -77.516667, "lat": 37.183333 }
	},
	{
		"column_1": "EDK",
		"airport_name": "El Dorado",
		"city_name": "El Dorado",
		"country_name": "United States",
		"country_code": "US",
		"latitude": 37.766667,
		"longitude": -96.866667,
		"world_area_code": 67,
		"city_name_geo_name_id": "4270863",
		"country_name_geo_name_id": 6252001,
		"coordinates": { "lon": -96.866667, "lat": 37.766667 }
	},
	{
		"column_1": "CSV",
		"airport_name": "Memorial",
		"city_name": "Crossville",
		"country_name": "United States",
		"country_code": "US",
		"latitude": 35.95,
		"longitude": -85.083333,
		"world_area_code": 67,
		"city_name_geo_name_id": "4616470",
		"country_name_geo_name_id": 6252001,
		"coordinates": { "lon": -85.083333, "lat": 35.95 }
	},
	{
		"column_1": "GRE",
		"airport_name": "Municipal",
		"city_name": "Greenville",
		"country_name": "United States",
		"country_code": "US",
		"latitude": 38.883333,
		"longitude": -89.416667,
		"world_area_code": 67,
		"city_name_geo_name_id": "5564488",
		"country_name_geo_name_id": 6252001,
		"coordinates": { "lon": -89.416667, "lat": 38.883333 }
	},
	{
		"column_1": "MVZ",
		"airport_name": "Masvingo",
		"city_name": "Masvingo",
		"country_name": "Zimbabwe",
		"country_code": "ZW",
		"latitude": -20.066667,
		"longitude": 30.833333,
		"world_area_code": 565,
		"city_name_geo_name_id": "886763",
		"country_name_geo_name_id": 878675,
		"coordinates": { "lon": 30.833333, "lat": -20.066667 }
	},
	{
		"column_1": "PPY",
		"airport_name": "Pouso Alegre",
		"city_name": "Pouso Alegre",
		"country_name": "Brazil",
		"country_code": "BR",
		"latitude": -22.289167,
		"longitude": -45.919167,
		"world_area_code": 316,
		"city_name_geo_name_id": "3452525",
		"country_name_geo_name_id": 3469034,
		"coordinates": { "lon": -45.919167, "lat": -22.289167 }
	},
	{
		"column_1": "YGX",
		"airport_name": "Gillam",
		"city_name": "Gillam",
		"country_name": "Canada",
		"country_code": "CA",
		"latitude": 56.35,
		"longitude": -94.716667,
		"world_area_code": 906,
		"city_name_geo_name_id": "\\N",
		"country_name_geo_name_id": 6251999,
		"coordinates": { "lon": -94.716667, "lat": 56.35 }
	},
	{
		"column_1": "KNU",
		"airport_name": "Kanpur",
		"city_name": "Kanpur",
		"country_name": "India",
		"country_code": "IN",
		"latitude": 26.433333,
		"longitude": 80.366667,
		"world_area_code": 733,
		"city_name_geo_name_id": "1267995",
		"country_name_geo_name_id": 1269750,
		"coordinates": { "lon": 80.366667, "lat": 26.433333 }
	},
	{
		"column_1": "TKU",
		"airport_name": "Turku",
		"city_name": "Turku",
		"country_name": "Finland",
		"country_code": "FI",
		"latitude": 60.514167,
		"longitude": 22.262778,
		"world_area_code": 425,
		"city_name_geo_name_id": "633679",
		"country_name_geo_name_id": 660013,
		"coordinates": { "lon": 22.262778, "lat": 60.514167 }
	},
	{
		"column_1": "TUB",
		"airport_name": "Tubuai",
		"city_name": "Tubuai",
		"country_name": "French Polynesia",
		"country_code": "PF",
		"latitude": -23.383333,
		"longitude": -1.466667,
		"world_area_code": 823,
		"city_name_geo_name_id": "\\N",
		"country_name_geo_name_id": 4020092,
		"coordinates": { "lon": -1.466667, "lat": -23.383333 }
	},
	{
		"column_1": "QDU",
		"airport_name": "Station",
		"city_name": "Dusseldorf",
		"country_name": "Germany",
		"country_code": "DE",
		"latitude": 51.2075,
		"longitude": 6.773333,
		"world_area_code": 429,
		"city_name_geo_name_id": "2934246",
		"country_name_geo_name_id": 2921044,
		"coordinates": { "lon": 6.773333, "lat": 51.2075 }
	},
	{
		"column_1": "MYQ",
		"airport_name": "Mysore",
		"city_name": "Mysore",
		"country_name": "India",
		"country_code": "IN",
		"latitude": 12.3,
		"longitude": 76.65,
		"world_area_code": 733,
		"city_name_geo_name_id": "1262321",
		"country_name_geo_name_id": 1269750,
		"coordinates": { "lon": 76.65, "lat": 12.3 }
	},
	{
		"column_1": "HOB",
		"airport_name": "Lea County",
		"city_name": "Hobbs",
		"country_name": "United States",
		"country_code": "US",
		"latitude": 32.683333,
		"longitude": -103.216667,
		"world_area_code": 67,
		"city_name_geo_name_id": "5471578",
		"country_name_geo_name_id": 6252001,
		"coordinates": { "lon": -103.216667, "lat": 32.683333 }
	},
	{
		"column_1": "EOR",
		"airport_name": "El Dorado",
		"city_name": "El Dorado",
		"country_name": "Venezuela",
		"country_code": "VE",
		"latitude": 6.733333,
		"longitude": -61.583333,
		"world_area_code": 388,
		"city_name_geo_name_id": "\\N",
		"country_name_geo_name_id": 3625428,
		"coordinates": { "lon": -61.583333, "lat": 6.733333 }
	},
	{
		"column_1": "RAX",
		"airport_name": "Oram",
		"city_name": "Oram",
		"country_name": "Papua New Guinea",
		"country_code": "PG",
		"latitude": -9.672222,
		"longitude": 148.033333,
		"world_area_code": 804,
		"city_name_geo_name_id": "\\N",
		"country_name_geo_name_id": 2088628,
		"coordinates": { "lon": 148.033333, "lat": -9.672222 }
	},
	{
		"column_1": "TCJ",
		"airport_name": "Torembi Airport",
		"city_name": "Torembi",
		"country_name": "Papua New Guinea",
		"country_code": "PG",
		"latitude": -4.016667,
		"longitude": 143.133333,
		"world_area_code": 804,
		"city_name_geo_name_id": "\\N",
		"country_name_geo_name_id": 2088628,
		"coordinates": { "lon": 143.133333, "lat": -4.016667 }
	},
	{
		"column_1": "VRC",
		"airport_name": "Virac",
		"city_name": "Virac",
		"country_name": "Philippines",
		"country_code": "PH",
		"latitude": 13.583333,
		"longitude": 124.2,
		"world_area_code": 766,
		"city_name_geo_name_id": "1679802",
		"country_name_geo_name_id": 1694008,
		"coordinates": { "lon": 124.2, "lat": 13.583333 }
	},
	{
		"column_1": "CPV",
		"airport_name": "Joao Suassuna",
		"city_name": "Campina Grande",
		"country_name": "Brazil",
		"country_code": "BR",
		"latitude": -7.266667,
		"longitude": -35.9,
		"world_area_code": 316,
		"city_name_geo_name_id": "3467877",
		"country_name_geo_name_id": 3469034,
		"coordinates": { "lon": -35.9, "lat": -7.266667 }
	},
	{
		"column_1": "TBA",
		"airport_name": "Tabibuga",
		"city_name": "Tabibuga",
		"country_name": "Papua New Guinea",
		"country_code": "PG",
		"latitude": -5.6,
		"longitude": 144.683333,
		"world_area_code": 804,
		"city_name_geo_name_id": "\\N",
		"country_name_geo_name_id": 2088628,
		"coordinates": { "lon": 144.683333, "lat": -5.6 }
	},
	{
		"column_1": "NSP",
		"airport_name": "NAF",
		"city_name": "Sangley Point",
		"country_name": "Philippines",
		"country_code": "PH",
		"latitude": 14.495833,
		"longitude": 120.918611,
		"world_area_code": 766,
		"city_name_geo_name_id": "\\N",
		"country_name_geo_name_id": 1694008,
		"coordinates": { "lon": 120.918611, "lat": 14.495833 }
	},
	{
		"column_1": "BSY",
		"airport_name": "Bardera",
		"city_name": "Bardera",
		"country_name": "Somalia",
		"country_code": "SO",
		"latitude": 2.35,
		"longitude": 42.333333,
		"world_area_code": 573,
		"city_name_geo_name_id": "\\N",
		"country_name_geo_name_id": 51537,
		"coordinates": { "lon": 42.333333, "lat": 2.35 }
	},
	{
		"column_1": "CLV",
		"airport_name": "Caldas Novas",
		"city_name": "Caldas Novas",
		"country_name": "Brazil",
		"country_code": "BR",
		"latitude": -17.724722,
		"longitude": -48.61,
		"world_area_code": 316,
		"city_name_geo_name_id": "3468100",
		"country_name_geo_name_id": 3469034,
		"coordinates": { "lon": -48.61, "lat": -17.724722 }
	},
	{
		"column_1": "RWS",
		"airport_name": "Sumare",
		"city_name": "Sumare",
		"country_name": "Brazil",
		"country_code": "BR",
		"latitude": -22.8,
		"longitude": -47.283333,
		"world_area_code": 316,
		"city_name_geo_name_id": "3447259",
		"country_name_geo_name_id": 3469034,
		"coordinates": { "lon": -47.283333, "lat": -22.8 }
	},
	{
		"column_1": "TUX",
		"airport_name": "Tumbler Ridge",
		"city_name": "Tumbler Ridge",
		"country_name": "Canada",
		"country_code": "CA",
		"latitude": 51.783611,
		"longitude": -4.109722,
		"world_area_code": 906,
		"city_name_geo_name_id": "\\N",
		"country_name_geo_name_id": 6251999,
		"coordinates": { "lon": -4.109722, "lat": 51.783611 }
	},
	{
		"column_1": "EYW",
		"airport_name": "International",
		"city_name": "Key West",
		"country_name": "United States",
		"country_code": "US",
		"latitude": 24.55,
		"longitude": -81.766667,
		"world_area_code": 67,
		"city_name_geo_name_id": "4160812",
		"country_name_geo_name_id": 6252001,
		"coordinates": { "lon": -81.766667, "lat": 24.55 }
	},
	{
		"column_1": "MLT",
		"airport_name": "Millinocket",
		"city_name": "Millinocket",
		"country_name": "United States",
		"country_code": "US",
		"latitude": 45.65,
		"longitude": -68.7,
		"world_area_code": 67,
		"city_name_geo_name_id": "4972220",
		"country_name_geo_name_id": 6252001,
		"coordinates": { "lon": -68.7, "lat": 45.65 }
	},
	{
		"column_1": "GWA",
		"airport_name": "Gwa",
		"city_name": "Gwa",
		"country_name": "Myanmar",
		"country_code": "MM",
		"latitude": 17.833333,
		"longitude": 94.5,
		"world_area_code": 706,
		"city_name_geo_name_id": "\\N",
		"country_name_geo_name_id": 1327865,
		"coordinates": { "lon": 94.5, "lat": 17.833333 }
	},
	{
		"column_1": "PEI",
		"airport_name": "Matecana",
		"city_name": "Pereira",
		"country_name": "Colombia",
		"country_code": "CO",
		"latitude": 4.8,
		"longitude": -75.75,
		"world_area_code": 327,
		"city_name_geo_name_id": "3672486",
		"country_name_geo_name_id": 3686121,
		"coordinates": { "lon": -75.75, "lat": 4.8 }
	},
	{
		"column_1": "HMI",
		"airport_name": "Hami",
		"city_name": "Hami",
		"country_name": "China",
		"country_code": "CN",
		"latitude": 42.483333,
		"longitude": 93.505556,
		"world_area_code": 713,
		"city_name_geo_name_id": "1529484",
		"country_name_geo_name_id": 1814991,
		"coordinates": { "lon": 93.505556, "lat": 42.483333 }
	},
	{
		"column_1": "PNJ",
		"airport_name": "Peng Lai/Sha He Kou",
		"city_name": "Peng Lai",
		"country_name": "China",
		"country_code": "CN",
		"latitude": 42.446389,
		"longitude": 119.573611,
		"world_area_code": 713,
		"city_name_geo_name_id": "\\N",
		"country_name_geo_name_id": 1814991,
		"coordinates": { "lon": 119.573611, "lat": 42.446389 }
	},
	{
		"column_1": "DCI",
		"airport_name": "Rafsu Decimomannu",
		"city_name": "Decimomannu",
		"country_name": "Italy",
		"country_code": "IT",
		"latitude": 39.316667,
		"longitude": 8.966667,
		"world_area_code": 450,
		"city_name_geo_name_id": "2524865",
		"country_name_geo_name_id": 3175395,
		"coordinates": { "lon": 8.966667, "lat": 39.316667 }
	},
	{
		"column_1": "BGL",
		"airport_name": "Baglung",
		"city_name": "Baglung",
		"country_name": "Nepal",
		"country_code": "NP",
		"latitude": 28.216667,
		"longitude": 83.666667,
		"world_area_code": 755,
		"city_name_geo_name_id": "1283711",
		"country_name_geo_name_id": 1282988,
		"coordinates": { "lon": 83.666667, "lat": 28.216667 }
	},
	{
		"column_1": "HOR",
		"airport_name": "Horta",
		"city_name": "Horta",
		"country_name": "Portugal",
		"country_code": "PT",
		"latitude": 38.533333,
		"longitude": -28.616667,
		"world_area_code": 469,
		"city_name_geo_name_id": "3372988",
		"country_name_geo_name_id": 2264397,
		"coordinates": { "lon": -28.616667, "lat": 38.533333 }
	},
	{
		"column_1": "EMT",
		"airport_name": "El Monte",
		"city_name": "El Monte",
		"country_name": "United States",
		"country_code": "US",
		"latitude": 34.1,
		"longitude": -118.033333,
		"world_area_code": 67,
		"city_name_geo_name_id": "5345743",
		"country_name_geo_name_id": 6252001,
		"coordinates": { "lon": -118.033333, "lat": 34.1 }
	},
	{
		"column_1": "JIO",
		"airport_name": "Intl Heliport",
		"city_name": "Ontario",
		"country_name": "United States",
		"country_code": "US",
		"latitude": -11.283333,
		"longitude": -74.433333,
		"world_area_code": 67,
		"city_name_geo_name_id": "5744166",
		"country_name_geo_name_id": 6252001,
		"coordinates": { "lon": -74.433333, "lat": -11.283333 }
	},
	{
		"column_1": "LPS",
		"airport_name": "Lopez Island",
		"city_name": "Lopez Island",
		"country_name": "United States",
		"country_code": "US",
		"latitude": 48.483333,
		"longitude": -122.936111,
		"world_area_code": 67,
		"city_name_geo_name_id": "\\N",
		"country_name_geo_name_id": 6252001,
		"coordinates": { "lon": -122.936111, "lat": 48.483333 }
	},
	{
		"column_1": "CEV",
		"airport_name": "Mettle Field",
		"city_name": "Connersville",
		"country_name": "United States",
		"country_code": "US",
		"latitude": 39.633333,
		"longitude": -85.133333,
		"world_area_code": 67,
		"city_name_geo_name_id": "4256085",
		"country_name_geo_name_id": 6252001,
		"coordinates": { "lon": -85.133333, "lat": 39.633333 }
	},
	{
		"column_1": "OAK",
		"airport_name": "Oakland International Airport",
		"city_name": "Oakland",
		"country_name": "United States",
		"country_code": "US",
		"latitude": 37.716667,
		"longitude": -122.216667,
		"world_area_code": 67,
		"city_name_geo_name_id": "5378538",
		"country_name_geo_name_id": 6252001,
		"coordinates": { "lon": -122.216667, "lat": 37.716667 }
	},
	{
		"column_1": "JDO",
		"airport_name": "Regional Do Cariri",
		"city_name": "Juazeiro Do Norte",
		"country_name": "Brazil",
		"country_code": "BR",
		"latitude": -7.218056,
		"longitude": -39.270556,
		"world_area_code": 316,
		"city_name_geo_name_id": "3397147",
		"country_name_geo_name_id": 3469034,
		"coordinates": { "lon": -39.270556, "lat": -7.218056 }
	},
	{
		"column_1": "WUK",
		"airport_name": "Off Line Point",
		"city_name": "Hammersmith",
		"country_name": "United Kingdom",
		"country_code": "GB",
		"latitude": 52.95,
		"longitude": -2.833333,
		"world_area_code": 493,
		"city_name_geo_name_id": "\\N",
		"country_name_geo_name_id": 2635167,
		"coordinates": { "lon": -2.833333, "lat": 52.95 }
	},
	{
		"column_1": "CZF",
		"airport_name": "Cape Romanzof",
		"city_name": "Cape Romanzof",
		"country_name": "United States",
		"country_code": "US",
		"latitude": 61.733333,
		"longitude": -166.0,
		"world_area_code": 67,
		"city_name_geo_name_id": "\\N",
		"country_name_geo_name_id": 6252001,
		"coordinates": { "lon": -166.0, "lat": 61.733333 }
	},
	{
		"column_1": "ZBK",
		"airport_name": "Zabljak",
		"city_name": "Zabljak",
		"country_name": "Yugoslavia",
		"country_code": "YU",
		"latitude": 43.116667,
		"longitude": 19.233333,
		"world_area_code": 497,
		"city_name_geo_name_id": "\\N",
		"country_name_geo_name_id": null,
		"coordinates": { "lon": 19.233333, "lat": 43.116667 }
	},
	{
		"column_1": "SZQ",
		"airport_name": "Saenz Pena",
		"city_name": "Saenz Pena",
		"country_name": "Argentina",
		"country_code": "AR",
		"latitude": -34.616667,
		"longitude": -58.533333,
		"world_area_code": 303,
		"city_name_geo_name_id": "\\N",
		"country_name_geo_name_id": 3865483,
		"coordinates": { "lon": -58.533333, "lat": -34.616667 }
	},
	{
		"column_1": "SWB",
		"airport_name": "Shaw River",
		"city_name": "Shaw River",
		"country_name": "Australia",
		"country_code": "AU",
		"latitude": -21.516666999999998,
		"longitude": 119.366667,
		"world_area_code": 802,
		"city_name_geo_name_id": "\\N",
		"country_name_geo_name_id": 2077456,
		"coordinates": { "lon": 119.366667, "lat": -21.516666999999998 }
	},
	{
		"column_1": "MSZ",
		"airport_name": "Namibe",
		"city_name": "Namibe",
		"country_name": "Angola",
		"country_code": "AO",
		"latitude": -15.208611,
		"longitude": 12.160833,
		"world_area_code": 502,
		"city_name_geo_name_id": "3347019",
		"country_name_geo_name_id": 3351879,
		"coordinates": { "lon": 12.160833, "lat": -15.208611 }
	},
	{
		"column_1": "BTX",
		"airport_name": "Betoota",
		"city_name": "Betoota",
		"country_name": "Australia",
		"country_code": "AU",
		"latitude": -25.633333,
		"longitude": 140.8,
		"world_area_code": 802,
		"city_name_geo_name_id": "\\N",
		"country_name_geo_name_id": 2077456,
		"coordinates": { "lon": 140.8, "lat": -25.633333 }
	},
	{
		"column_1": "DOX",
		"airport_name": "Dongara",
		"city_name": "Dongara",
		"country_name": "Australia",
		"country_code": "AU",
		"latitude": -29.25,
		"longitude": 114.933333,
		"world_area_code": 802,
		"city_name_geo_name_id": "\\N",
		"country_name_geo_name_id": 2077456,
		"coordinates": { "lon": 114.933333, "lat": -29.25 }
	},
	{
		"column_1": "SCG",
		"airport_name": "Spring Creek",
		"city_name": "Spring Creek",
		"country_name": "Australia",
		"country_code": "AU",
		"latitude": -18.633333,
		"longitude": 144.55,
		"world_area_code": 802,
		"city_name_geo_name_id": "\\N",
		"country_name_geo_name_id": 2077456,
		"coordinates": { "lon": 144.55, "lat": -18.633333 }
	},
	{
		"column_1": "BDC",
		"airport_name": "Barra Do Corda",
		"city_name": "Barra Do Corda",
		"country_name": "Brazil",
		"country_code": "BR",
		"latitude": -5.466667,
		"longitude": -45.266667,
		"world_area_code": 316,
		"city_name_geo_name_id": "3406318",
		"country_name_geo_name_id": 3469034,
		"coordinates": { "lon": -45.266667, "lat": -5.466667 }
	},
	{
		"column_1": "WPU",
		"airport_name": "Puerto Williams",
		"city_name": "Puerto Williams",
		"country_name": "Chile",
		"country_code": "CL",
		"latitude": -54.916667,
		"longitude": -67.633333,
		"world_area_code": 324,
		"city_name_geo_name_id": "\\N",
		"country_name_geo_name_id": 3895114,
		"coordinates": { "lon": -67.633333, "lat": -54.916667 }
	},
	{
		"column_1": "CNK",
		"airport_name": "Blosser Municipal",
		"city_name": "Concordia",
		"country_name": "United States",
		"country_code": "US",
		"latitude": 39.55,
		"longitude": -97.65,
		"world_area_code": 67,
		"city_name_geo_name_id": "5096867",
		"country_name_geo_name_id": 6252001,
		"coordinates": { "lon": -97.65, "lat": 39.55 }
	},
	{
		"column_1": "HNC",
		"airport_name": "Hatteras",
		"city_name": "Hatteras",
		"country_name": "United States",
		"country_code": "US",
		"latitude": 35.216667,
		"longitude": -75.686111,
		"world_area_code": 67,
		"city_name_geo_name_id": "\\N",
		"country_name_geo_name_id": 6252001,
		"coordinates": { "lon": -75.686111, "lat": 35.216667 }
	},
	{
		"column_1": "MJT",
		"airport_name": "Mytilene International Airport",
		"city_name": "Mytilene",
		"country_name": "Greece",
		"country_code": "GR",
		"latitude": 39.056667,
		"longitude": 26.598333,
		"world_area_code": 433,
		"city_name_geo_name_id": "256866",
		"country_name_geo_name_id": 390903,
		"coordinates": { "lon": 26.598333, "lat": 39.056667 }
	},
	{
		"column_1": "QRY",
		"airport_name": "Heliport",
		"city_name": "Ikerasaarsuk",
		"country_name": "Greenland",
		"country_code": "GL",
		"latitude": 68.533333,
		"longitude": -82.216667,
		"world_area_code": 975,
		"city_name_geo_name_id": "\\N",
		"country_name_geo_name_id": 3425505,
		"coordinates": { "lon": -82.216667, "lat": 68.533333 }
	},
	{
		"column_1": "WSP",
		"airport_name": "Waspam",
		"city_name": "Waspam",
		"country_name": "Nicaragua",
		"country_code": "NI",
		"latitude": 14.583333,
		"longitude": -84.083333,
		"world_area_code": 153,
		"city_name_geo_name_id": "3615730",
		"country_name_geo_name_id": 3617476,
		"coordinates": { "lon": -84.083333, "lat": 14.583333 }
	},
	{
		"column_1": "LSA",
		"airport_name": "Losuia",
		"city_name": "Losuia",
		"country_name": "Papua New Guinea",
		"country_code": "PG",
		"latitude": -8.5,
		"longitude": 151.083333,
		"world_area_code": 804,
		"city_name_geo_name_id": "\\N",
		"country_name_geo_name_id": 2088628,
		"coordinates": { "lon": 151.083333, "lat": -8.5 }
	},
	{
		"column_1": "SOL",
		"airport_name": "Solomon",
		"city_name": "Solomon",
		"country_name": "United States",
		"country_code": "US",
		"latitude": 64.583333,
		"longitude": -164.3,
		"world_area_code": 67,
		"city_name_geo_name_id": "4279540",
		"country_name_geo_name_id": 6252001,
		"coordinates": { "lon": -164.3, "lat": 64.583333 }
	},
	{
		"column_1": "MNI",
		"airport_name": "Gerald's Airport",
		"city_name": "Gerald's Park",
		"country_name": "Montserrat",
		"country_code": "MS",
		"latitude": 16.791389,
		"longitude": -62.193333,
		"world_area_code": 256,
		"city_name_geo_name_id": "\\N",
		"country_name_geo_name_id": 3578097,
		"coordinates": { "lon": -62.193333, "lat": 16.791389 }
	},
	{
		"column_1": "WKN",
		"airport_name": "Wakunai",
		"city_name": "Wakunai",
		"country_name": "Papua New Guinea",
		"country_code": "PG",
		"latitude": -5.866667,
		"longitude": 155.233333,
		"world_area_code": 804,
		"city_name_geo_name_id": "\\N",
		"country_name_geo_name_id": 2088628,
		"coordinates": { "lon": 155.233333, "lat": -5.866667 }
	},
	{
		"column_1": "WNU",
		"airport_name": "Wanuma",
		"city_name": "Wanuma",
		"country_name": "Papua New Guinea",
		"country_code": "PG",
		"latitude": -4.9,
		"longitude": 145.316667,
		"world_area_code": 804,
		"city_name_geo_name_id": "\\N",
		"country_name_geo_name_id": 2088628,
		"coordinates": { "lon": 145.316667, "lat": -4.9 }
	},
	{
		"column_1": "AHT",
		"airport_name": "Amchitka",
		"city_name": "Amchitka",
		"country_name": "United States",
		"country_code": "US",
		"latitude": 51.5,
		"longitude": 179.0,
		"world_area_code": 67,
		"city_name_geo_name_id": "\\N",
		"country_name_geo_name_id": 6252001,
		"coordinates": { "lon": 179.0, "lat": 51.5 }
	},
	{
		"column_1": "AUS",
		"airport_name": "Austin-bergstrom International",
		"city_name": "Austin",
		"country_name": "United States",
		"country_code": "US",
		"latitude": 30.194444,
		"longitude": -97.67,
		"world_area_code": 67,
		"city_name_geo_name_id": "5016884",
		"country_name_geo_name_id": 6252001,
		"coordinates": { "lon": -97.67, "lat": 30.194444 }
	},
	{
		"column_1": "BJP",
		"airport_name": "Braganca Paulista",
		"city_name": "Braganca Paulista",
		"country_name": "Brazil",
		"country_code": "BR",
		"latitude": -4.633333,
		"longitude": -39.766667,
		"world_area_code": 316,
		"city_name_geo_name_id": "3469092",
		"country_name_geo_name_id": 3469034,
		"coordinates": { "lon": -39.766667, "lat": -4.633333 }
	},
	{
		"column_1": "PVI",
		"airport_name": "Edu Chaves",
		"city_name": "Paranavai",
		"country_name": "Brazil",
		"country_code": "BR",
		"latitude": -23.09,
		"longitude": -52.488611,
		"world_area_code": 316,
		"city_name_geo_name_id": "3455051",
		"country_name_geo_name_id": 3469034,
		"coordinates": { "lon": -52.488611, "lat": -23.09 }
	},
	{
		"column_1": "FRC",
		"airport_name": "Franca",
		"city_name": "Franca",
		"country_name": "Brazil",
		"country_code": "BR",
		"latitude": -20.583333,
		"longitude": -47.383333,
		"world_area_code": 316,
		"city_name_geo_name_id": "3463011",
		"country_name_geo_name_id": 3469034,
		"coordinates": { "lon": -47.383333, "lat": -20.583333 }
	},
	{
		"column_1": "OXD",
		"airport_name": "Miami University",
		"city_name": "Oxford",
		"country_name": "United States",
		"country_code": "US",
		"latitude": 45.733333,
		"longitude": -63.866667,
		"world_area_code": 67,
		"city_name_geo_name_id": "5130319",
		"country_name_geo_name_id": 6252001,
		"coordinates": { "lon": -63.866667, "lat": 45.733333 }
	},
	{
		"column_1": "RBY",
		"airport_name": "Ruby",
		"city_name": "Ruby",
		"country_name": "United States",
		"country_code": "US",
		"latitude": 64.733333,
		"longitude": -155.483333,
		"world_area_code": 67,
		"city_name_geo_name_id": "\\N",
		"country_name_geo_name_id": 6252001,
		"coordinates": { "lon": -155.483333, "lat": 64.733333 }
	},
	{
		"column_1": "WSF",
		"airport_name": "Sarichef",
		"city_name": "Sarichef",
		"country_name": "United States",
		"country_code": "US",
		"latitude": 31.1,
		"longitude": -1.383333,
		"world_area_code": 67,
		"city_name_geo_name_id": "\\N",
		"country_name_geo_name_id": 6252001,
		"coordinates": { "lon": -1.383333, "lat": 31.1 }
	},
	{
		"column_1": "JYV",
		"airport_name": "Jyvaskyla",
		"city_name": "Jyvaskyla",
		"country_name": "Finland",
		"country_code": "FI",
		"latitude": 62.233333,
		"longitude": 25.733333000000002,
		"world_area_code": 425,
		"city_name_geo_name_id": "655194",
		"country_name_geo_name_id": 660013,
		"coordinates": { "lon": 25.733333000000002, "lat": 62.233333 }
	},
	{
		"column_1": "ZVG",
		"airport_name": "Springvale",
		"city_name": "Springvale",
		"country_name": "Australia",
		"country_code": "AU",
		"latitude": -17.8,
		"longitude": 127.633333,
		"world_area_code": 802,
		"city_name_geo_name_id": "\\N",
		"country_name_geo_name_id": 2077456,
		"coordinates": { "lon": 127.633333, "lat": -17.8 }
	},
	{
		"column_1": "XNU",
		"airport_name": "Nouna",
		"city_name": "Nouna",
		"country_name": "Burkina Faso",
		"country_code": "BF",
		"latitude": 12.733333,
		"longitude": -3.866667,
		"world_area_code": 593,
		"city_name_geo_name_id": "2357163",
		"country_name_geo_name_id": 2361809,
		"coordinates": { "lon": -3.866667, "lat": 12.733333 }
	},
	{
		"column_1": "YSH",
		"airport_name": "Smith Falls",
		"city_name": "Smith Falls",
		"country_name": "Canada",
		"country_code": "CA",
		"latitude": 44.833056,
		"longitude": -76.115833,
		"world_area_code": 906,
		"city_name_geo_name_id": "\\N",
		"country_name_geo_name_id": 6251999,
		"coordinates": { "lon": -76.115833, "lat": 44.833056 }
	},
	{
		"column_1": "YSZ",
		"airport_name": "Squirrel Cove",
		"city_name": "Squirrel Cove",
		"country_name": "Canada",
		"country_code": "CA",
		"latitude": 50.05,
		"longitude": -124.916667,
		"world_area_code": 906,
		"city_name_geo_name_id": "\\N",
		"country_name_geo_name_id": 6251999,
		"coordinates": { "lon": -124.916667, "lat": 50.05 }
	},
	{
		"column_1": "MPC",
		"airport_name": "Muko-Muko",
		"city_name": "Muko-Muko",
		"country_name": "Indonesia",
		"country_code": "ID",
		"latitude": -2.55,
		"longitude": 101.1,
		"world_area_code": 832,
		"city_name_geo_name_id": "\\N",
		"country_name_geo_name_id": 1643084,
		"coordinates": { "lon": 101.1, "lat": -2.55 }
	},
	{
		"column_1": "KKX",
		"airport_name": "Kikaiga Shima",
		"city_name": "Kikaiga Shima",
		"country_name": "Japan",
		"country_code": "JP",
		"latitude": 28.433333,
		"longitude": 130.008333,
		"world_area_code": 736,
		"city_name_geo_name_id": "\\N",
		"country_name_geo_name_id": 1861060,
		"coordinates": { "lon": 130.008333, "lat": 28.433333 }
	},
	{
		"column_1": "HAX",
		"airport_name": "Hatbox Field",
		"city_name": "Muskogee",
		"country_name": "United States",
		"country_code": "US",
		"latitude": 35.745833,
		"longitude": -95.412778,
		"world_area_code": 1,
		"city_name_geo_name_id": "4543338",
		"country_name_geo_name_id": 6252001,
		"coordinates": { "lon": -95.412778, "lat": 35.745833 }
	},
	{
		"column_1": "HTW",
		"airport_name": "Lawrence County Airpark",
		"city_name": "Chesapeake/Huntington Wv",
		"country_name": "United States",
		"country_code": "US",
		"latitude": 42.2525,
		"longitude": -82.494444,
		"world_area_code": 67,
		"city_name_geo_name_id": "4801966",
		"country_name_geo_name_id": 6252001,
		"coordinates": { "lon": -82.494444, "lat": 42.2525 }
	},
	{
		"column_1": "GAI",
		"airport_name": "Montgomery County",
		"city_name": "Gaithersburg",
		"country_name": "United States",
		"country_code": "US",
		"latitude": 39.168333,
		"longitude": -77.166111,
		"world_area_code": 67,
		"city_name_geo_name_id": "4355843",
		"country_name_geo_name_id": 6252001,
		"coordinates": { "lon": -77.166111, "lat": 39.168333 }
	},
	{
		"column_1": "PHZ",
		"airport_name": "Phi Phi Island",
		"city_name": "Phi Phi Island",
		"country_name": "Thailand",
		"country_code": "TH",
		"latitude": 8.166667,
		"longitude": 98.283333,
		"world_area_code": 782,
		"city_name_geo_name_id": "\\N",
		"country_name_geo_name_id": 1605651,
		"coordinates": { "lon": 98.283333, "lat": 8.166667 }
	},
	{
		"column_1": "HFE",
		"airport_name": "Shanghai",
		"city_name": "Luogang",
		"country_name": "China",
		"country_code": "CN",
		"latitude": 31.95,
		"longitude": 117.283333,
		"world_area_code": 713,
		"city_name_geo_name_id": "\\N",
		"country_name_geo_name_id": 1814991,
		"coordinates": { "lon": 117.283333, "lat": 31.95 }
	},
	{
		"column_1": "SMF",
		"airport_name": "Sacramento International",
		"city_name": "Sacramento, CA",
		"country_name": "United States",
		"country_code": "US",
		"latitude": 38.7,
		"longitude": -121.616667,
		"world_area_code": 67,
		"city_name_geo_name_id": "5389489",
		"country_name_geo_name_id": 6252001,
		"coordinates": { "lon": -121.616667, "lat": 38.7 }
	},
	{
		"column_1": "SKY",
		"airport_name": "Griffing Sandusky",
		"city_name": "Sandusky",
		"country_name": "United States",
		"country_code": "US",
		"latitude": 41.433333,
		"longitude": -82.7,
		"world_area_code": 67,
		"city_name_geo_name_id": "5170691",
		"country_name_geo_name_id": 6252001,
		"coordinates": { "lon": -82.7, "lat": 41.433333 }
	},
	{
		"column_1": "HDA",
		"airport_name": "Hidden Falls",
		"city_name": "Hidden Falls",
		"country_name": "United States",
		"country_code": "US",
		"latitude": 57.066667,
		"longitude": -134.983333,
		"world_area_code": 67,
		"city_name_geo_name_id": "\\N",
		"country_name_geo_name_id": 6252001,
		"coordinates": { "lon": -134.983333, "lat": 57.066667 }
	},
	{
		"column_1": "GVT",
		"airport_name": "Majors Field",
		"city_name": "Greenville",
		"country_name": "United States",
		"country_code": "US",
		"latitude": 33.133333,
		"longitude": -96.116667,
		"world_area_code": 67,
		"city_name_geo_name_id": "5564488",
		"country_name_geo_name_id": 6252001,
		"coordinates": { "lon": -96.116667, "lat": 33.133333 }
	},
	{
		"column_1": "GMV",
		"airport_name": "Monument Valley",
		"city_name": "Monument Valley Gldngs",
		"country_name": "United States",
		"country_code": "US",
		"latitude": -2.616667,
		"longitude": 152.016667,
		"world_area_code": 67,
		"city_name_geo_name_id": "\\N",
		"country_name_geo_name_id": 6252001,
		"coordinates": { "lon": 152.016667, "lat": -2.616667 }
	},
	{
		"column_1": "PFC",
		"airport_name": "Pacific City State",
		"city_name": "Pacific City, OH",
		"country_name": "United States",
		"country_code": "US",
		"latitude": 45.199722,
		"longitude": -123.962222,
		"world_area_code": 67,
		"city_name_geo_name_id": "5744635",
		"country_name_geo_name_id": 6252001,
		"coordinates": { "lon": -123.962222, "lat": 45.199722 }
	},
	{
		"column_1": "VXC",
		"airport_name": "Lichinga",
		"city_name": "Lichinga",
		"country_name": "Mozambique",
		"country_code": "MZ",
		"latitude": -13.283333,
		"longitude": 35.25,
		"world_area_code": 550,
		"city_name_geo_name_id": "1043893",
		"country_name_geo_name_id": 1036973,
		"coordinates": { "lon": 35.25, "lat": -13.283333 }
	},
	{
		"column_1": "GAZ",
		"airport_name": "Guasopa",
		"city_name": "Guasopa",
		"country_name": "Papua New Guinea",
		"country_code": "PG",
		"latitude": -9.233333,
		"longitude": 152.95,
		"world_area_code": 804,
		"city_name_geo_name_id": "\\N",
		"country_name_geo_name_id": 2088628,
		"coordinates": { "lon": 152.95, "lat": -9.233333 }
	},
	{
		"column_1": "DOD",
		"airport_name": "Dodoma",
		"city_name": "Dodoma",
		"country_name": "Tanzania",
		"country_code": "TZ",
		"latitude": -6.170556,
		"longitude": 35.7525,
		"world_area_code": 585,
		"city_name_geo_name_id": "160196",
		"country_name_geo_name_id": 149590,
		"coordinates": { "lon": 35.7525, "lat": -6.170556 }
	},